PostalCode,Province,City,Latitude,Longitude,AreaCode,TimeZone,DST
A0A 0A0,NL,Bay Roberts,47.598168,-53.257591,709,-0330,Y
A0A 0A1,NL,Avondale,47.420665,-53.198308,709,-0330,Y
A0A 0A2,NL,Holyrood,47.379666,-53.165663,709,-0330,Y
A0A 0A3,NL,Trepassey,46.737496,-53.364128,709,-0330,Y
A0A 0A4,NL,South River,47.554499,-53.287575,709,-0330,Y
A0A 0A5,NL,Northern Bay,47.943881,-53.068237,709,-0330,Y
A0A 0A6,NL,Clarkes Beach,47.552354,-53.285857,709,-0330,Y
A0A 0A7,NL,Conception Harbour,47.446647,-53.203554,709,-0330,Y
A0A 0A8,NL,Harbour Main,47.432795,-53.160254,709,-0330,Y
A0A 0A9,NL,Jobs Cove,47.977943,-53.014627,709,-0330,Y
A0A 0B1,NL,St Shotts,46.632147,-53.586987,709,-0330,Y
A0A 0B2,NL,Cape Broyle,47.095251,-52.95655,709,-0330,Y
A0A 0B3,NL,Aquaforte,47.006499,-52.958695,709,-0330,Y
A0A 0B4,NL,Colliers Riverhead,47.467828,-53.223678,709,-0330,Y
A0A 0B5,NL,Fermeuse,46.976139,-52.944003,709,-0330,Y
A0A 0B6,NL,Petty Harbour,47.896937,-53.078203,709,-0330,Y
A0A 0B7,NL,Western Bay,47.896937,-53.078203,709,-0330,Y
A0A 0B8,NL,Broad Cove BDV,47.837682,-53.098649,709,-0330,Y
A0A 0B9,NL,Burnt Point BDV,47.957128,-53.041863,709,-0330,Y
A0A 0C1,NL,Pouch Cove,47.763632,-52.765906,709,-0330,Y
A0A 0C2,NL,Red Head Cove,48.130929,-52.895806,709,-0330,Y
A0A 0C3,NL,Ferryland,47.035664,-52.884379,709,-0330,Y
A0A 0C4,NL,Bay Bulls,47.318591,-52.817795,709,-0330,Y
A0A 0C5,NL,Bay Roberts,47.598168,-53.257591,709,-0330,Y
A0A 0C6,NL,Bell Island,47.641017,-52.95655,709,-0330,Y
A0A 0C7,NL,Coleys Point South,47.572978,-53.27495,709,-0330,Y
A0A 0C8,NL,Makinsons,47.505721,-53.291018,709,-0330,Y
A0A 0C9,NL,Harbour Grace,47.696724,-53.21369,709,-0330,Y
A0A 0E1,NL,Lower Island Cove,48.00203,-52.988423,709,-0330,Y
A0A 0E2,NL,Port de Grave,47.596709,-53.196334,709,-0330,Y
A0A 0E3,NL,Renews,46.931691,-52.940311,709,-0330,Y
A0A 0E4,NL,Victoria CB,47.765869,-53.240239,709,-0330,Y
A0A 0E5,NL,Spaniards Bay,47.58166,-53.273277,709,-0330,Y
A0A 0E6,NL,Bay de Verde,48.085194,-52.895034,709,-0330,Y
A0A 0E7,NL,Bell Island Front,47.627585,-52.94108,709,-0330,Y
A0A 0E8,NL,Brigus,47.535825,-53.207761,709,-0330,Y
A0A 0E9,NL,Grates Cove,48.163021,-52.932836,709,-0330,Y
A0A 0G1,NL,Upper Island Cove,47.648062,-53.212829,709,-0330,Y
A0A 0G2,NL,Witless Bay,47.28265,-52.829908,709,-0330,Y
A0A 0G3,NL,Woodfords,47.326159,-53.142724,709,-0330,Y
A0A 0G4,NL,Cupids,47.561551,-53.205869,709,-0330,Y
A0A 0G5,NL,Calvert,47.053371,-52.911099,709,-0330,Y
A0A 0G6,NL,Tors Cove,47.216688,-52.851474,709,-0330,Y
A0A 0G7,NL,Cappahayden,46.88541,-52.935499,709,-0330,Y
A0A 0G8,NL,Old Perlican,48.082531,-53.005519,709,-0330,Y
A0A 0G9,NL,Shea Heights,47.514235,-52.68935,709,-0330,Y
A0A 0H1,NL,Riverhead Harbour Grace,47.326159,-53.142724,709,-0330,Y
A0A 0H2,NL,Bay Roberts,47.598168,-53.257591,709,-0330,Y
A0A 1A0,NL,Aquaforte,47.006499,-52.958695,709,-0330,Y
A0A 1B0,NL,Avondale,47.420665,-53.198308,709,-0330,Y
A0A 1C0,NL,Bay Bulls,47.318591,-52.817795,709,-0330,Y
A0A 1E0,NL,Bay de Verde,48.085194,-52.895034,709,-0330,Y
A0A 1G0,NL,Bay Roberts,47.598168,-53.257591,709,-0330,Y
A0A 1H0,NL,Bell Island Front,47.627585,-52.94108,709,-0330,Y
A0A 1J0,NL,Shea Heights,47.514235,-52.68935,709,-0330,Y
A0A 1K0,NL,Brigus,47.535825,-53.207761,709,-0330,Y
A0A 1L0,NL,Broad Cove BDV,47.837682,-53.098649,709,-0330,Y
A0A 1M0,NL,Burnt Point BDV,47.957128,-53.041863,709,-0330,Y
A0A 1N0,NL,Calvert,47.053371,-52.911099,709,-0330,Y
A0A 1P0,NL,Cape Broyle,47.095251,-52.95655,709,-0330,Y
A0A 1R0,NL,Caplin Cove BDV,48.036331,-52.987819,709,-0330,Y
A0A 1S0,NL,Cappahayden,46.88541,-52.935499,709,-0330,Y
A0A 1V0,NL,Chapel Cove,47.438556,-53.134132,709,-0330,Y
A0A 1W0,NL,Clarkes Beach,47.552354,-53.285857,709,-0330,Y
A0A 1X0,NL,Coleys Point South,47.572978,-53.27495,709,-0330,Y
A0A 1Y0,NL,Colliers Riverhead,47.467828,-53.223678,709,-0330,Y
A0A 1Z0,NL,Conception Harbour,47.455359,-53.190089,709,-0330,Y
A0A 2B0,NL,Cupids,47.561551,-53.205869,709,-0330,Y
A0A 2G0,NL,Fermeuse,46.976139,-52.944003,709,-0330,Y
A0A 2H0,NL,Ferryland,47.035664,-52.884379,709,-0330,Y
A0A 2L0,NL,Grates Cove,48.163021,-52.932836,709,-0330,Y
A0A 2M0,NL,Harbour Grace,47.696724,-53.21369,709,-0330,Y
A0A 2N0,NL,Harbour Grace South,47.682015,-53.212057,709,-0330,Y
A0A 2P0,NL,Harbour Main,47.432795,-53.160254,709,-0330,Y
A0A 2R0,NL,Holyrood,47.385223,-53.128347,709,-0330,Y
A0A 2S0,NL,Jobs Cove,47.977943,-53.014627,709,-0330,Y
A0A 2W0,NL,Lower Island Cove,48.00203,-52.988423,709,-0330,Y
A0A 2X0,NL,Makinsons,47.505721,-53.291018,709,-0330,Y
A0A 2Z0,NL,Marysvale,47.494718,-53.227094,709,-0330,Y
A0A 3A0,NL,Mobile,47.248841,-52.841936,709,-0330,Y
A0A 3B0,NL,Northern Bay,47.943881,-53.068237,709,-0330,Y
A0A 3C0,NL,North River,47.542792,-53.314469,709,-0330,Y
A0A 3E0,NL,Ochre Pit Cove,47.922646,-53.071328,709,-0330,Y
A0A 3G0,NL,Old Perlican,48.082531,-53.005519,709,-0330,Y
A0A 3H0,NL,Petty Harbour,47.596709,-53.196334,709,-0330,Y
A0A 3J0,NL,Port de Grave,47.596709,-53.196334,709,-0330,Y
A0A 3L0,NL,Pouch Cove,47.763632,-52.765906,709,-0330,Y
A0A 3M0,NL,Red Head Cove,48.130929,-52.895806,709,-0330,Y
A0A 3N0,NL,Renews,46.931691,-52.940311,709,-0330,Y
A0A 3P0,NL,Riverhead Harbour Grace,47.326159,-53.142724,709,-0330,Y
A0A 3R0,NL,St Shotts,46.632147,-53.586987,709,-0330,Y
A0A 3S0,NL,Salmon Cove BDV,47.782033,-53.175116,709,-0330,Y
A0A 3W0,NL,South River,47.524925,-53.266122,709,-0330,Y
A0A 3X0,NL,Spaniards Bay,47.58166,-53.273277,709,-0330,Y
A0A 3X1,NL,Spaniards Bay,47.628791,-53.301406,709,-0330,Y
A0A 4A0,NL,Tors Cove,47.216688,-52.851474,709,-0330,Y
A0A 4B0,NL,Trepassey,46.733118,-53.367969,709,-0330,Y
A0A 4E0,NL,Upper Island Cove,47.648062,-53.212829,709,-0330,Y
A0A 4G0,NL,Victoria CB,47.765869,-53.240239,709,-0330,Y
A0A 4H0,NL,Bell Island,47.641017,-52.95655,709,-0330,Y
A0A 4J0,NL,Western Bay,47.896937,-53.078203,709,-0330,Y
A0A 4K0,NL,Witless Bay,47.28265,-52.829908,709,-0330,Y
A0A 4L0,NL,Woodfords,47.326159,-53.142724,709,-0330,Y
A0B 0A1,NL,Chance Cove,47.650815,-53.800656,709,-0330,Y
A0B 0A2,NL,Come by Chance,47.802766,-53.998434,709,-0330,Y
A0B 0A3,NL,Dildo,47.562835,-53.548584,709,-0330,Y
A0B 0A4,NL,Winterton,47.955667,-53.329588,709,-0330,Y
A0B 0A5,NL,Bellevue,47.639815,-53.731411,709,-0330,Y
A0B 0A6,NL,Heart's Content,47.872161,-53.368424,709,-0330,Y
A0B 0A7,NL,Brigus Junction,47.37494,-53.275376,709,-0330,Y
A0B 0A8,NL,Branch,46.88206,-53.953498,709,-0330,Y
A0B 0A9,NL,Brownsdale,48.03057,-53.115147,709,-0330,Y
A0B 0B1,NL,Cavendish,47.723655,-53.492911,709,-0330,Y
A0B 0B2,NL,Freshwater PB,47.364083,-53.857708,709,-0330,Y
A0B 0B3,NL,Jerseyside,47.364083,-53.857708,709,-0330,Y
A0B 0B4,NL,Long Harbour,47.364083,-53.857708,709,-0330,Y
A0B 0B5,NL,St Brides,46.920845,-54.171463,709,-0330,Y
A0B 0B6,NL,Chapel Arm,47.518965,-53.674622,709,-0330,Y
A0B 0B7,NL,Fair Haven,47.540039,-53.895937,709,-0330,Y
A0B 0B8,NL,Greens Harbour,47.649613,-53.500732,709,-0330,Y
A0B 0B9,NL,Placentia,47.364083,-53.857708,709,-0330,Y
A0B 0C1,NL,Sunnyside,47.897371,-53.949718,709,-0330,Y
A0B 0C2,NL,Whitbourne,47.420064,-53.535784,709,-0330,Y
A0B 0C3,NL,Arnolds Cove,47.772662,-53.9785,709,-0330,Y
A0B 0C4,NL,St Vincents,46.75522,-53.585959,709,-0330,Y
A0B 0C5,NL,Ship Harbour PB,47.364083,-53.857708,709,-0330,Y
A0B 0C6,NL,Colinet,47.219266,-53.552108,709,-0330,Y
A0B 0C7,NL,Mount Carmel,47.132321,-53.497723,709,-0330,Y
A0B 0C8,NL,New Harbour TB,47.584839,-53.543171,709,-0330,Y
A0B 0C9,NL,Southern Harbour PB,47.714619,-53.972145,709,-0330,Y
A0B 0E1,NL,Blaketown,47.491019,-53.551593,709,-0330,Y
A0B 0E2,NL,Normans Cove,47.561807,-53.695672,709,-0330,Y
A0B 0E3,NL,St Marys,46.912417,-53.575563,709,-0330,Y
A0B 0E4,NL,Hopeall,47.627756,-53.506916,709,-0330,Y
A0B 0E5,NL,Whiteway,47.665428,-53.485436,709,-0330,Y
A0B 0E6,NL,Dunville,47.364083,-53.857708,709,-0330,Y
A0B 0E7,NL,Hants Harbour,48.005558,-53.26773,709,-0330,Y
A0B 0E8,NL,Islington,47.759507,-53.481573,709,-0330,Y
A0B 0E9,NL,Fox Harbour PB,47.32123,-53.91255,709,-0330,Y
A0B 1A0,NL,Arnolds Cove,47.772662,-53.9785,709,-0330,Y
A0B 1B0,NL,Bellevue,47.639815,-53.731411,709,-0330,Y
A0B 1C0,NL,Blaketown,47.491019,-53.551593,709,-0330,Y
A0B 1E0,NL,Branch,46.88206,-53.953498,709,-0330,Y
A0B 1G0,NL,Brigus Junction,47.37494,-53.275376,709,-0330,Y
A0B 1H0,NL,Brownsdale,48.03057,-53.115147,709,-0330,Y
A0B 1J0,NL,Cavendish,47.723655,-53.492911,709,-0330,Y
A0B 1K0,NL,Chance Cove,47.650815,-53.800656,709,-0330,Y
A0B 1L0,NL,Chapel Arm,47.524187,-53.672668,709,-0330,Y
A0B 1M0,NL,Colinet,47.219266,-53.552108,709,-0330,Y
A0B 1N0,NL,Come by Chance,47.802766,-53.998434,709,-0330,Y
A0B 1P0,NL,Dildo,47.562835,-53.548584,709,-0330,Y
A0B 1R0,NL,South Dildo,47.530146,-53.549274,709,-0330,Y
A0B 1S0,NL,Dunville,47.364083,-53.857708,709,-0330,Y
A0B 1T0,NL,Fair Haven,47.540039,-53.895937,709,-0330,Y
A0B 1V0,NL,Fox Harbour PB,47.31754,-53.91409,709,-0330,Y
A0B 1W0,NL,Freshwater PB,47.364083,-53.857708,709,-0330,Y
A0B 1X0,NL,Greens Harbour,47.649613,-53.500732,709,-0330,Y
A0B 1Y0,NL,Hants Harbour,48.005558,-53.26773,709,-0330,Y
A0B 1Z0,NL,Heart's Content,47.872161,-53.368424,709,-0330,Y
A0B 2A0,NL,Heart's Delight,47.770425,-53.463012,709,-0330,Y
A0B 2B0,NL,Heart's Desire,47.810467,-53.445571,709,-0330,Y
A0B 2C0,NL,Hopeall,47.627756,-53.506916,709,-0330,Y
A0B 2E0,NL,Islington,47.759507,-53.481573,709,-0330,Y
A0B 2G0,NL,Jerseyside,47.364083,-53.857708,709,-0330,Y
A0B 2H0,NL,Little Harbour East PB,47.649326,-53.933973,709,-0330,Y
A0B 2J0,NL,Long Harbour,47.364083,-53.857708,709,-0330,Y
A0B 2L0,NL,Mount Arlington Heights,47.364083,-53.857708,709,-0330,Y
A0B 2M0,NL,Mount Carmel,47.132321,-53.497723,709,-0330,Y
A0B 2N0,NL,New Chelsea,48.025673,-53.219014,709,-0330,Y
A0B 2P0,NL,New Harbour TB,47.584839,-53.543171,709,-0330,Y
A0B 2R0,NL,New Melbourne,48.043557,-53.15063,709,-0330,Y
A0B 2S0,NL,New Perlican,47.907784,-53.361034,709,-0330,Y
A0B 2T0,NL,Normans Cove,47.561807,-53.695672,709,-0330,Y
A0B 2V0,NL,North Harbour SMB,47.175399,-53.642834,709,-0330,Y
A0B 2W0,NL,Old Shop,47.364083,-53.857708,709,-0330,Y
A0B 2Y0,NL,Placentia,47.216211,-53.911583,709,-0330,Y
A0B 2Z0,NL,St Brides,46.920845,-54.171463,709,-0330,Y
A0B 3A0,NL,Mount Carmel,47.132321,-53.497723,709,-0330,Y
A0B 3B0,NL,St Marys,46.912417,-53.575563,709,-0330,Y
A0B 3C0,NL,St Vincents,46.75522,-53.585959,709,-0330,Y
A0B 3E0,NL,Ship Harbour PB,47.364083,-53.857708,709,-0330,Y
A0B 3H0,NL,Southern Harbour PB,47.714619,-53.972145,709,-0330,Y
A0B 3J0,NL,Sunnyside,47.897371,-53.949718,709,-0330,Y
A0B 3K0,NL,Whitbourne,47.411028,-53.539313,709,-0330,Y
A0B 3L0,NL,Whiteway,47.665428,-53.485436,709,-0330,Y
A0B 3M0,NL,Winterton,47.955667,-53.329588,709,-0330,Y
A0C 0A1,NL,Bunyans Cove,48.352302,-53.904099,709,-0330,Y
A0C 0A2,NL,Newmans Cove,48.589228,-53.191092,709,-0330,Y
A0C 0A3,NL,Plate Cove West,48.498236,-53.508552,709,-0330,Y
A0C 0A4,NL,Port Union,48.496775,-53.08465,709,-0330,Y
A0C 0A5,NL,Bloomfield,48.377923,-53.908825,709,-0330,Y
A0C 0A6,NL,Bonavista,48.651738,-53.112654,709,-0330,Y
A0C 0A7,NL,Elliston,48.633078,-53.040999,709,-0330,Y
A0C 0A8,NL,Knights Cove,48.539774,-53.322372,709,-0330,Y
A0C 0A9,NL,Sweet Bay,48.442516,-53.651167,709,-0330,Y
A0C 0B1,NL,Trinity TB,48.352302,-53.904099,709,-0330,Y
A0C 0B2,NL,Princeton,48.42015,-53.587161,709,-0330,Y
A0C 0B3,NL,Melrose,48.481718,-53.070471,709,-0330,Y
A0C 0B4,NL,Charlottetown,48.436929,-54.008143,709,-0400,Y
A0C 0B5,NL,Summerville,48.431345,-53.55984,709,-0330,Y
A0C 0B6,NL,Hickmans Harbour,48.126029,-53.747821,709,-0330,Y
A0C 0B7,NL,Lethbridge,48.360038,-53.850318,709,-0330,Y
A0C 0B8,NL,Tickle Cove,48.582832,-53.486457,709,-0330,Y
A0C 0B9,NL,Plate Cove East,48.514584,-53.487328,709,-0330,Y
A0C 0C1,NL,Little Catalina,48.542697,-53.048044,709,-0330,Y
A0C 0C2,NL,Kings Cove,48.566774,-53.33775,709,-0330,Y
A0C 0C3,NL,Catalina,48.516572,-53.078629,709,-0330,Y
A0C 0C4,NL,Port Rexton,48.380416,-53.336203,709,-0330,Y
A0C 0C5,NL,Southern Bay,48.396579,-53.627626,709,-0330,Y
A0C 0C6,NL,Port Blandford,48.348269,-54.173444,709,-0330,Y
A0C 0C7,NL,Musgravetown,48.397187,-53.897057,709,-0330,Y
A0C 0C8,NL,Open Hall,48.548629,-53.482171,709,-0330,Y
A0C 0C9,NL,Keels,48.604804,-53.393337,709,-0330,Y
A0C 1A0,NL,Bloomfield,48.377923,-53.908825,709,-0330,Y
A0C 1B0,NL,Bonavista,48.651738,-53.112654,709,-0330,Y
A0C 1E0,NL,Bunyans Cove,48.352302,-53.904099,709,-0330,Y
A0C 1G0,NL,Burgoynes Cove,48.169223,-53.712338,709,-0330,Y
A0C 1H0,NL,Cannings Cove,48.443977,-53.848426,709,-0330,Y
A0C 1J0,NL,Catalina,48.516572,-53.078629,709,-0330,Y
A0C 1K0,NL,Charleston,48.386433,-53.652973,709,-0330,Y
A0C 1L0,NL,Charlottetown,48.436929,-54.008143,709,-0400,Y
A0C 1M0,NL,Duntara,48.595594,-53.368766,709,-0330,Y
A0C 1N0,NL,Elliston,48.633078,-53.040999,709,-0330,Y
A0C 1P0,NL,Hickmans Harbour,48.126029,-53.747821,709,-0330,Y
A0C 1R0,NL,Keels,48.604804,-53.393337,709,-0330,Y
A0C 1S0,NL,Kings Cove,48.566774,-53.33775,709,-0330,Y
A0C 1T0,NL,Knights Cove,48.539774,-53.322372,709,-0330,Y
A0C 1V0,NL,Lethbridge,48.360038,-53.850318,709,-0330,Y
A0C 1W0,NL,Little Catalina,48.542697,-53.048044,709,-0330,Y
A0C 1Y0,NL,Melrose,48.481718,-53.070471,709,-0330,Y
A0C 1Z0,NL,Musgravetown,48.397187,-53.897057,709,-0330,Y
A0C 2A0,NL,Newmans Cove,48.589228,-53.191092,709,-0330,Y
A0C 2B0,NL,Open Hall,48.548629,-53.482171,709,-0330,Y
A0C 2C0,NL,Plate Cove East,48.514584,-53.487328,709,-0330,Y
A0C 2E0,NL,Plate Cove West,48.498236,-53.508552,709,-0330,Y
A0C 2G0,NL,Port Blandford,48.348269,-54.173444,709,-0330,Y
A0C 2H0,NL,Port Rexton,48.380416,-53.336203,709,-0330,Y
A0C 2J0,NL,Port Union,48.496775,-53.08465,709,-0330,Y
A0C 2K0,NL,Princeton,48.42015,-53.587161,709,-0330,Y
A0C 2M0,NL,Southern Bay,48.396579,-53.627626,709,-0330,Y
A0C 2N0,NL,Summerville,48.431345,-53.55984,709,-0330,Y
A0C 2P0,NL,Sweet Bay,48.442516,-53.651167,709,-0330,Y
A0C 2R0,NL,Tickle Cove,48.582832,-53.486457,709,-0330,Y
A0C 2S0,NL,Trinity TB,48.352302,-53.904099,709,-0330,Y
A0E 0A1,NL,Baine Harbour,47.358752,-54.894265,709,-0330,Y
A0E 0A2,NL,Burin,47.045377,-55.171509,709,-0330,Y
A0E 0A3,NL,English Harbour East,47.634299,-54.889794,709,-0330,Y
A0E 0A4,NL,Garnish,47.234996,-55.360264,709,-0330,Y
A0E 0A5,NL,Lamaline,46.858082,-55.80728,709,-0330,Y
A0E 0A6,NL,Marystown,47.165339,-55.155704,709,-0330,Y
A0E 0A7,NL,Swift Current,47.881364,-54.20738,709,-0330,Y
A0E 0A8,NL,Grand Bank,47.096285,-55.759083,709,-0330,Y
A0E 0A9,NL,Hillview,48.037448,-53.923517,709,-0330,Y
A0E 0B1,NL,Lawn,46.949494,-55.538194,709,-0330,Y
A0E 0B2,NL,Red Harbour PB,47.296358,-55.009451,709,-0330,Y
A0E 0B3,NL,St Bernards-Jacques Fontaine,47.528168,-54.945296,709,-0330,Y
A0E 0B4,NL,Lewins Cove,47.092156,-55.232338,709,-0330,Y
A0E 0B5,NL,Monkstown,47.609437,-54.406442,709,-0330,Y
A0E 0B6,NL,Garden Cove PB,47.88773,-54.157724,709,-0330,Y
A0E 0B7,NL,Terrenceville,47.662416,-54.721406,709,-0330,Y
A0E 0B8,NL,Hodges Cove,48.009079,-53.747821,709,-0330,Y
A0E 0B9,NL,Little Bay East,47.554413,-54.850794,709,-0330,Y
A0E 0C1,NL,Burin Bay Arm,47.08381,-55.198577,709,-0330,Y
A0E 0C2,NL,Gooseberry Cove,47.559915,-54.838336,709,-0330,Y
A0E 0C3,NL,Harbour Mille,47.579938,-54.88585,709,-0330,Y
A0E 0C4,NL,South East Bight,47.335026,-54.581921,709,-0330,Y
A0E 0C5,NL,Creston,47.141091,-55.212664,709,-0330,Y
A0E 0C6,NL,Parkers Cove,47.395994,-54.862132,709,-0330,Y
A0E 0C7,NL,Fortune,47.072889,-55.828156,709,-0330,Y
A0E 0C8,NL,Creston North,47.149513,-55.189462,709,-0330,Y
A0E 0C9,NL,Rushoon,47.354449,-54.914714,709,-0330,Y
A0E 0E1,NL,Epworth,47.027673,-55.198748,709,-0330,Y
A0E 0E2,NL,Grand Beach,47.126133,-55.514309,709,-0330,Y
A0E 0E3,NL,St Lawrence,46.924462,-55.392226,709,-0330,Y
A0E 1A0,NL,Baine Harbour,47.358752,-54.894265,709,-0330,Y
A0E 1B0,NL,Bay l'Argent,47.545597,-54.893732,709,-0330,Y
A0E 1C0,NL,Boat Harbour West,47.559915,-54.838336,709,-0330,Y
A0E 1E0,NL,Burin,47.045377,-55.171509,709,-0330,Y
A0E 1G0,NL,Burin Bay Arm,47.08381,-55.198577,709,-0330,Y
A0E 1H0,NL,Parkers Cove,47.395994,-54.862132,709,-0330,Y
A0E 1K0,NL,Creston,47.141091,-55.212664,709,-0330,Y
A0E 1L0,NL,Creston North,47.149513,-55.189462,709,-0330,Y
A0E 1M0,NL,English Harbour East,47.634299,-54.889794,709,-0330,Y
A0E 1N0,NL,Epworth,47.027673,-55.198748,709,-0330,Y
A0E 1P0,NL,Fortune,47.072889,-55.828156,709,-0330,Y
A0E 1R0,NL,Frenchmans Cove FB,47.215657,-55.402707,709,-0330,Y
A0E 1S0,NL,Garden Cove PB,47.88773,-54.157724,709,-0330,Y
A0E 1T0,NL,Garnish,47.234996,-55.360264,709,-0330,Y
A0E 1V0,NL,Gooseberry Cove,47.559915,-54.838336,709,-0330,Y
A0E 1W0,NL,Grand Bank,47.096285,-55.759083,709,-0330,Y
A0E 1X0,NL,Grand Beach,47.126133,-55.514309,709,-0330,Y
A0E 1Y0,NL,Grand le Pierre,47.67901,-54.785927,709,-0330,Y
A0E 1Z0,NL,Harbour Mille,47.579938,-54.88585,709,-0330,Y
A0E 2A0,NL,Hillview,48.037448,-53.923517,709,-0330,Y
A0E 2B0,NL,Hodges Cove,48.009079,-53.747821,709,-0330,Y
A0E 2C0,NL,Lamaline,46.858082,-55.80728,709,-0330,Y
A0E 2E0,NL,Lawn,46.949494,-55.538194,709,-0330,Y
A0E 2G0,NL,Lewins Cove,47.092156,-55.232338,709,-0330,Y
A0E 2H0,NL,Little Bay PB,47.559915,-54.838336,709,-0330,Y
A0E 2J0,NL,Little Bay East,47.554413,-54.850794,709,-0330,Y
A0E 2K0,NL,Little Hearts Ease,48.007105,-53.693524,709,-0330,Y
A0E 2L0,NL,Little St Lawrence,46.92885,-55.351761,709,-0330,Y
A0E 2M0,NL,Marystown,47.165339,-55.155704,709,-0330,Y
A0E 2N0,NL,North Harbour PB,47.851892,-54.104245,709,-0330,Y
A0E 2P0,NL,North West Brook,48.016298,-53.955906,709,-0330,Y
A0E 2R0,NL,Red Harbour PB,47.295443,-55.006621,709,-0330,Y
A0E 2S0,NL,Rushoon,47.354449,-54.914714,709,-0330,Y
A0E 2T0,NL,St Bernards-Jacques Fontaine,47.528168,-54.945296,709,-0330,Y
A0E 2V0,NL,St Lawrence,46.924462,-55.392226,709,-0330,Y
A0E 2W0,NL,Swift Current,47.881364,-54.20738,709,-0330,Y
A0E 2X0,NL,Terrenceville,47.662416,-54.721406,709,-0330,Y
A0E 2Y0,NL,Winterland,47.162244,-55.298407,709,-0330,Y
A0E 2Z0,NL,Monkstown,47.609437,-54.406442,709,-0330,Y
A0E 3A0,NL,Petite Forte,47.395086,-54.671108,709,-0330,Y
A0E 3B0,NL,South East Bight,47.335026,-54.581921,709,-0330,Y
A0G 0A1,NL,Aspen Cove,49.459186,-54.105743,709,-0330,Y
A0G 0A2,NL,Cottlesville,49.510696,-54.865479,709,-0330,Y
A0G 0A3,NL,Eastport,48.655092,-53.754695,709,-0330,Y
A0G 0A4,NL,Hare Bay BB,48.854704,-54.010032,709,-0330,Y
A0G 0A5,NL,Indian Bay BB,49.042705,-53.876604,709,-0330,Y
A0G 0A6,NL,Norris Arm,49.087238,-55.267562,709,-0330,Y
A0G 0A7,NL,Port Albert,49.541394,-54.533682,709,-0330,Y
A0G 0A8,NL,Glovertown South,48.669029,-54.000497,709,-0330,Y
A0G 0A9,NL,Birchy Bay,49.363809,-54.726218,709,-0330,Y
A0G 0B1,NL,Glenwood,48.997455,-54.872531,709,-0330,Y
A0G 0B2,NL,Stoneville,49.452045,-54.551809,709,-0330,Y
A0G 0B3,NL,Island Harbour,49.616988,-54.310897,709,-0330,Y
A0G 0B4,NL,Laurenceton,49.191214,-55.275638,709,-0330,Y
A0G 0B5,NL,Little Burnt Bay,49.337069,-55.0752,709,-0330,Y
A0G 0B6,NL,Pound Cove,49.181665,-53.55675,709,-0330,Y
A0G 0B7,NL,Twillingate,49.648304,-54.763934,709,-0330,Y
A0G 0B8,NL,Joe Batts Arm,49.722688,-54.149815,709,-0330,Y
A0G 0B9,NL,Wareham-Centreville,49.012509,-53.88898,709,-0330,Y
A0G 0C1,NL,Benton,48.896583,-54.417869,709,-0330,Y
A0G 0C2,NL,Campbellton,49.292953,-54.935334,709,-0330,Y
A0G 0C3,NL,Carmanville,49.406651,-54.292778,709,-0330,Y
A0G 0C4,NL,Musgrave Harbour,49.447575,-53.961575,709,-0330,Y
A0G 0C5,NL,Trinity BB,48.979573,-53.911144,709,-0330,Y
A0G 0C6,NL,St Chads,48.686582,-53.773338,709,-0330,Y
A0G 0C7,NL,Baytona,49.342055,-54.764962,709,-0330,Y
A0G 0C8,NL,Valley Pond,49.569534,-54.898127,709,-0330,Y
A0G 0C9,NL,Fogo,49.713908,-54.275593,709,-0330,Y
A0G 0E1,NL,Badgers Quay,49.113469,-53.58613,709,-0330,Y
A0G 0E2,NL,Bridgeport,49.551031,-54.874505,709,-0330,Y
A0G 0E3,NL,Cape Freels North,49.260871,-53.499355,709,-0330,Y
A0G 0E4,NL,Dover,48.869594,-53.96888,709,-0330,Y
A0G 0E5,NL,Gander Bay South,49.270154,-54.487373,709,-0330,Y
A0G 0E6,NL,Herring Neck,49.638475,-54.617727,709,-0330,Y
A0G 0E7,NL,Moretons Harbour,49.556796,-54.8672,709,-0330,Y
A0G 0E8,NL,St Brendans,48.868395,-53.652369,709,-0330,Y
A0G 0E9,NL,Sandringham,48.66576,-53.823769,709,-0330,Y
A0G 0G1,NL,Wings Point,49.321079,-54.483937,709,-0330,Y
A0G 0G2,NL,Durrell,49.661902,-54.733434,709,-0330,Y
A0G 0G3,NL,Gander Bay,49.292782,-54.482647,709,-0330,Y
A0G 0G4,NL,Hillgrade,49.568411,-54.701476,709,-0330,Y
A0G 0G5,NL,Summerford,49.490072,-54.80775,709,-0330,Y
A0G 0G6,NL,Comfort Cove-Newstead,49.40158,-54.859386,709,-0330,Y
A0G 0G7,NL,Carters Cove,49.536753,-54.781805,709,-0330,Y
A0G 0G8,NL,Glovertown,48.681849,-54.037441,709,-0330,Y
A0G 0G9,NL,Lumsden,49.298721,-53.610616,709,-0330,Y
A0G 0H1,NL,Ladle Cove,49.473119,-54.061149,709,-0330,Y
A0G 0H2,NL,Gambo South,48.835173,-54.123956,709,-0330,Y
A0G 0H3,NL,Greenspond,49.068325,-53.572985,709,-0330,Y
A0G 0H4,NL,Lewisporte,49.244793,-55.057158,709,-0330,Y
A0G 0H5,NL,Tilting,49.702559,-54.063556,709,-0330,Y
A0G 0H6,NL,Templeman,49.203341,-53.535439,709,-0330,Y
A0G 0H7,NL,Boyds Cove,49.454367,-54.658087,709,-0330,Y
A0G 0H8,NL,Gambo,48.794936,-54.203169,709,-0330,Y
A0G 0H9,NL,Horwood,49.451529,-54.530673,709,-0330,Y
A0G 0J1,NL,Loon Bay,49.271704,-54.835156,709,-0330,Y
A0G 0J2,NL,Salvage,48.688215,-53.650996,709,-0330,Y
A0G 0J3,NL,Victoria Cove,49.34575,-54.484713,709,-0330,Y
A0G 0J4,NL,Wesleyville,49.168852,-53.554858,709,-0330,Y
A0G 0J5,NL,Change Islands,49.673073,-54.410653,709,-0330,Y
A0G 0J6,NL,Deadmans Bay,49.357187,-53.71758,709,-0330,Y
A0G 0J7,NL,Newtown,49.20386,-53.514993,709,-0330,Y
A0G 0J8,NL,Seldom,49.615095,-54.187617,709,-0330,Y
A0G 0J9,NL,Traytown,48.666358,-53.97154,709,-0330,Y
A0G 0K1,NL,Embree,49.313003,-55.030783,709,-0330,Y
A0G 0K2,NL,Brookfield,49.137737,-53.583036,709,-0330,Y
A0G 1A0,NL,Aspen Cove,49.459186,-54.105743,709,-0330,Y
A0G 1B0,NL,Badgers Quay,49.113469,-53.58613,709,-0330,Y
A0G 1C0,NL,Benton,48.896583,-54.417869,709,-0330,Y
A0G 1E0,NL,Birchy Bay,49.363809,-54.726218,709,-0330,Y
A0G 1G0,NL,Boyds Cove,49.454367,-54.658087,709,-0330,Y
A0G 1H0,NL,Bridgeport,49.551031,-54.874505,709,-0330,Y
A0G 1J0,NL,Brookfield,49.137737,-53.583036,709,-0330,Y
A0G 1K0,NL,Burnside,48.715211,-53.788115,709,-0330,Y
A0G 1L0,NL,Campbellton,49.292953,-54.935334,709,-0330,Y
A0G 1M0,NL,Cape Freels North,49.260871,-53.499355,709,-0330,Y
A0G 1N0,NL,Carmanville,49.406651,-54.292778,709,-0330,Y
A0G 1P0,NL,Carters Cove,49.536753,-54.781805,709,-0330,Y
A0G 1R0,NL,Change Islands,49.673073,-54.410653,709,-0330,Y
A0G 1S0,NL,Cottlesville,49.510696,-54.865479,709,-0330,Y
A0G 1T0,NL,Gambo,48.794936,-54.203169,709,-0330,Y
A0G 1V0,NL,Deadmans Bay,49.357187,-53.71758,709,-0330,Y
A0G 1W0,NL,Deep Bay,49.6607,-54.275425,709,-0330,Y
A0G 1X0,NL,Dover,48.869594,-53.96888,709,-0330,Y
A0G 1Y0,NL,Durrell,49.661902,-54.733434,709,-0330,Y
A0G 1Z0,NL,Eastport,48.655092,-53.754695,709,-0330,Y
A0G 2A0,NL,Embree,49.313003,-55.030783,709,-0330,Y
A0G 2B0,NL,Fogo,49.713908,-54.275593,709,-0330,Y
A0G 2C0,NL,Frederickton,49.426934,-54.356268,709,-0330,Y
A0G 2E0,NL,Gambo South,48.835173,-54.123956,709,-0330,Y
A0G 2G0,NL,Gander Bay,49.292782,-54.482647,709,-0330,Y
A0G 2H0,NL,Gander Bay South,49.270154,-54.487373,709,-0330,Y
A0G 2J0,NL,Baytona,49.342055,-54.764962,709,-0330,Y
A0G 2K0,NL,Glenwood,48.997455,-54.872531,709,-0330,Y
A0G 2L0,NL,Glovertown,48.686589,-54.033228,709,-0330,Y
A0G 2M0,NL,Glovertown South,48.669029,-54.000497,709,-0330,Y
A0G 2N0,NL,Greenspond,49.068325,-53.572985,709,-0330,Y
A0G 2P0,NL,Hare Bay BB,48.854704,-54.010032,709,-0330,Y
A0G 2R0,NL,Herring Neck,49.638475,-54.617727,709,-0330,Y
A0G 2S0,NL,Hillgrade,49.568411,-54.701476,709,-0330,Y
A0G 2T0,NL,Horwood,49.451529,-54.530673,709,-0330,Y
A0G 2V0,NL,Indian Bay BB,49.042705,-53.876604,709,-0330,Y
A0G 2W0,NL,Island Harbour,49.671124,-54.310891,709,-0330,Y
A0G 2X0,NL,Joe Batts Arm,49.722688,-54.149815,709,-0330,Y
A0G 2Y0,NL,Ladle Cove,49.473119,-54.061149,709,-0330,Y
A0G 2Z0,NL,Laurenceton,49.191214,-55.275638,709,-0330,Y
A0G 3A0,NL,Lewisporte,49.243271,-55.059349,709,-0330,Y
A0G 3B0,NL,Little Burnt Bay,49.337069,-55.0752,709,-0330,Y
A0G 3C0,NL,Loon Bay,49.271704,-54.835156,709,-0330,Y
A0G 3E0,NL,Lumsden,49.298721,-53.610616,709,-0330,Y
A0G 3G0,NL,Main Point,49.323398,-54.420536,709,-0330,Y
A0G 3H0,NL,Moretons Harbour,49.556796,-54.8672,709,-0330,Y
A0G 3J0,NL,Musgrave Harbour,49.447575,-53.961575,709,-0330,Y
A0G 3K0,NL,Comfort Cove-Newstead,49.40158,-54.859386,709,-0330,Y
A0G 3L0,NL,Newtown,49.20386,-53.514993,709,-0330,Y
A0G 3M0,NL,Norris Arm,49.087238,-55.267562,709,-0330,Y
A0G 3N0,NL,Norris Arm Northside,49.119322,-55.22684,709,-0330,Y
A0G 3P0,NL,Pools Island,49.078996,-53.628824,709,-0330,Y
A0G 3R0,NL,Port Albert,49.541394,-54.533682,709,-0330,Y
A0G 3S0,NL,Pound Cove,49.181665,-53.55675,709,-0330,Y
A0G 3T0,NL,Rodgers Cove,49.368969,-54.507734,709,-0330,Y
A0G 3V0,NL,St Brendans,48.868395,-53.652369,709,-0330,Y
A0G 3W0,NL,St Chads,48.686582,-53.773338,709,-0330,Y
A0G 3X0,NL,Salvage,48.688215,-53.650996,709,-0330,Y
A0G 3Y0,NL,Sandringham,48.66576,-53.823769,709,-0330,Y
A0G 3Z0,NL,Seldom,49.615095,-54.187617,709,-0330,Y
A0G 4A0,NL,Shalloway Cove,48.845563,-53.67816,709,-0330,Y
A0G 4B0,NL,Stag Harbour,49.582174,-54.282037,709,-0330,Y
A0G 4C0,NL,Stoneville,49.452045,-54.551809,709,-0330,Y
A0G 4E0,NL,Summerford,49.490072,-54.80775,709,-0330,Y
A0G 4G0,NL,Templeman,49.203341,-53.535439,709,-0330,Y
A0G 4H0,NL,Tilting,49.702559,-54.063556,709,-0330,Y
A0G 4J0,NL,Tizzards Harbour,49.59524,-54.803191,709,-0330,Y
A0G 4K0,NL,Traytown,48.666358,-53.97154,709,-0330,Y
A0G 4L0,NL,Trinity BB,48.979573,-53.911144,709,-0330,Y
A0G 4M0,NL,Twillingate,49.648304,-54.763934,709,-0330,Y
A0G 4N0,NL,Victoria Cove,49.34575,-54.484713,709,-0330,Y
A0G 4P0,NL,Wareham-Centreville,49.012509,-53.88898,709,-0330,Y
A0G 4R0,NL,Wesleyville,49.168852,-53.554858,709,-0330,Y
A0G 4S0,NL,Valley Pond,49.569534,-54.898127,709,-0330,Y
A0G 4T0,NL,Wings Point,49.321079,-54.483937,709,-0330,Y
A0H 0A1,NL,Pools Cove,47.68202,-55.4332,709,-0330,Y
A0H 0A2,NL,Belleoram,47.523783,-55.41216,709,-0330,Y
A0H 0A3,NL,Peterview,49.125601,-55.336473,709,-0330,Y
A0H 0A4,NL,Harbour Breton,47.469531,-55.821456,709,-0330,Y
A0H 0A5,NL,English Harbour West,47.46584,-55.504689,709,-0330,Y
A0H 0A6,NL,St Albans,47.868892,-55.845597,709,-0330,Y
A0H 0A7,NL,Hermitage,47.557426,-55.927904,709,-0330,Y
A0H 0A8,NL,Milltown,47.916034,-55.74688,709,-0330,Y
A0H 0A9,NL,Conne River,47.882826,-55.699199,709,-0330,Y
A0H 0B1,NL,Botwood,49.130862,-55.366883,709,-0330,Y
A0H 0B2,NL,Bishops Falls,49.010613,-55.495751,709,-0330,Y
A0H 0B3,NL,Leading Tickles,49.505027,-55.453138,709,-0330,Y
A0H 0B4,NL,Millertown,48.858317,-56.433594,709,-0330,Y
A0H 0B5,NL,Head Bay d'Espoir,47.919082,-55.743662,709,-0330,Y
A0H 0B6,NL,Buchans,48.825542,-56.855185,709,-0330,Y
A0H 0B7,NL,Badger,48.980605,-56.03452,709,-0330,Y
A0H 0B8,NL,Gaultois,47.607679,-55.920087,709,-0330,Y
A0H 0B9,NL,McCallum,48.858317,-56.433594,709,-0330,Y
A0H 0C1,NL,Point Leamington,49.336947,-55.399181,709,-0330,Y
A0H 0C2,NL,Seal Cove FB,47.48466,-56.062015,709,-0330,Y
A0H 0C3,NL,Rencontre East,47.647543,-55.231392,709,-0330,Y
A0H 1A0,NL,Badger,48.980605,-56.03452,709,-0330,Y
A0H 1B0,NL,Belleoram,47.523783,-55.41216,709,-0330,Y
A0H 1C0,NL,Bishops Falls,49.016327,-55.481904,709,-0330,Y
A0H 1E0,NL,Botwood,49.130862,-55.366883,709,-0330,Y
A0H 1G0,NL,Buchans,48.825542,-56.855185,709,-0330,Y
A0H 1H0,NL,Buchans Junction,48.858317,-56.433594,709,-0330,Y
A0H 1J0,NL,Conne River,47.882826,-55.699199,709,-0330,Y
A0H 1L0,NL,Cottrells Cove,49.481555,-55.284487,709,-0330,Y
A0H 1M0,NL,English Harbour West,47.46584,-55.504689,709,-0330,Y
A0H 1N0,NL,Gaultois,47.607679,-55.920087,709,-0330,Y
A0H 1P0,NL,Harbour Breton,47.469531,-55.821456,709,-0330,Y
A0H 1R0,NL,Head Bay d'Espoir,47.924373,-55.747611,709,-0330,Y
A0H 1S0,NL,Hermitage,47.557426,-55.927904,709,-0330,Y
A0H 1T0,NL,Leading Tickles,49.505027,-55.453138,709,-0330,Y
A0H 1V0,NL,Millertown,48.858317,-56.433594,709,-0330,Y
A0H 1W0,NL,Milltown,47.916034,-55.74688,709,-0330,Y
A0H 1Y0,NL,Peterview,49.121981,-55.334993,709,-0330,Y
A0H 1Z0,NL,Point Leamington,49.337787,-55.399166,709,-0330,Y
A0H 2A0,NL,Point of Bay,49.295709,-55.261807,709,-0330,Y
A0H 2B0,NL,Pools Cove,47.68202,-55.4332,709,-0330,Y
A0H 2C0,NL,Rencontre East,47.647543,-55.231392,709,-0330,Y
A0H 2E0,NL,St Albans,47.868892,-55.845597,709,-0330,Y
A0H 2G0,NL,Seal Cove FB,47.48466,-56.062015,709,-0330,Y
A0H 2J0,NL,McCallum,48.858317,-56.433594,709,-0330,Y
A0J 0A1,NL,Brighton,49.535892,-55.653406,709,-0330,Y
A0J 0A2,NL,Pilleys Island,49.506915,-55.731502,709,-0330,Y
A0J 0A3,NL,South Brook GB,49.534086,-56.191577,709,-0330,Y
A0J 0A4,NL,Little Bay NDB,49.600564,-55.954795,709,-0330,Y
A0J 0A5,NL,Kings Point,49.534086,-56.191577,709,-0330,Y
A0J 0A6,NL,Springdale,49.534086,-56.191577,709,-0330,Y
A0J 0A7,NL,Roberts Arm,49.485345,-55.812693,709,-0330,Y
A0J 0A8,NL,Triton,49.513793,-55.618698,709,-0330,Y
A0J 0A9,NL,Beaumont,49.615184,-55.678575,709,-0330,Y
A0J 0B2,NL,Miles Cove,49.542169,-55.780219,709,-0330,Y
A0J 1A0,NL,Beaumont,49.615184,-55.678575,709,-0330,Y
A0J 1B0,NL,Brighton,49.535892,-55.653406,709,-0330,Y
A0J 1E0,NL,Harrys Harbour,49.687253,-55.970176,709,-0330,Y
A0J 1G0,NL,Jacksons Cove,49.653723,-56.037362,709,-0330,Y
A0J 1H0,NL,Kings Point,49.534086,-56.191577,709,-0330,Y
A0J 1J0,NL,Little Bay NDB,49.600564,-55.954795,709,-0330,Y
A0J 1L0,NL,Miles Cove,49.542169,-55.780219,709,-0330,Y
A0J 1M0,NL,Pilleys Island,49.506915,-55.731502,709,-0330,Y
A0J 1N0,NL,Port Anson,49.535547,-55.837691,709,-0330,Y
A0J 1P0,NL,Rattling Brook,49.534086,-56.191577,709,-0330,Y
A0J 1R0,NL,Roberts Arm,49.485345,-55.812693,709,-0330,Y
A0J 1S0,NL,South Brook GB,49.534086,-56.191577,709,-0330,Y
A0J 1T0,NL,Springdale,49.533964,-56.027982,709,-0330,Y
A0J 1V0,NL,Triton,49.513793,-55.618698,709,-0330,Y
A0K 0A1,NL,Conche,50.885056,-55.895085,709,-0330,Y
A0K 0A2,NL,Flowers Cove,51.297579,-56.729741,709,-0330,Y
A0K 0A3,NL,Hampden,49.541742,-56.859733,709,-0330,Y
A0K 0A4,NL,Harbour Round,49.920838,-55.719211,709,-0330,Y
A0K 0A5,NL,Raleigh,51.559155,-55.729009,709,-0330,Y
A0K 0A6,NL,Rocky Harbour,49.590165,-57.916398,709,-0330,Y
A0K 0A7,NL,Forteau,51.472671,-56.957248,709,-0330,Y
A0K 0A8,NL,Birchy Head,49.4702,-57.919314,709,-0330,Y
A0K 0A9,NL,Baie Verte,49.937688,-56.195098,709,-0330,Y
A0K 0B1,NL,Englee,50.732398,-56.105916,709,-0330,Y
A0K 0B2,NL,Fleur de Lys,50.122322,-56.130061,709,-0330,Y
A0K 0B3,NL,St Lewis,52.290019,-55.835287,709,-0330,Y
A0K 0B4,NL,Woodstock,49.966058,-55.882371,709,-0330,Y
A0K 0B5,NL,Black Tickle,53.466412,-55.776021,709,-0400,Y
A0K 0B6,NL,Port au Choix,50.702755,-57.363275,709,-0330,Y
A0K 0B7,NL,Roddickton,50.869825,-56.118118,709,-0330,Y
A0K 0B8,NL,Shoe Cove,49.916621,-55.565512,709,-0330,Y
A0K 0B9,NL,Sops Arm,49.769813,-56.892552,709,-0330,Y
A0K 0C1,NL,Charlottetown LAB,52.778303,-56.153946,709,-0330,Y
A0K 0C2,NL,Sandy Cove,52.75732,-56.795984,709,-0330,Y
A0K 0C3,NL,Brents Cove,49.935455,-55.71329,709,-0330,Y
A0K 0C4,NL,Cow Head,49.913694,-57.793195,709,-0330,Y
A0K 0C5,NL,Seal Cove WB,49.936059,-56.386688,709,-0330,Y
A0K 0C6,NL,Black Duck Cove,51.200826,-56.77674,709,-0330,Y
A0K 0C7,NL,Daniels Harbour,50.230075,-57.589061,709,-0330,Y
A0K 0C8,NL,Marys Harbour,52.305148,-55.835977,709,-0330,Y
A0K 0C9,NL,Port Hope Simpson,52.55361,-56.301632,709,-0330,Y
A0K 0E1,NL,Mings Bight,49.975862,-56.049215,709,-0330,Y
A0K 0E2,NL,Middle Arm GB,49.704277,-56.089503,709,-0330,Y
A0K 0E3,NL,Hawkes Bay,50.606149,-57.171774,709,-0330,Y
A0K 0E4,NL,Bellburns,50.335509,-57.533217,709,-0330,Y
A0K 0E5,NL,Plum Point,51.077261,-56.883704,709,-0330,Y
A0K 0E6,NL,La Scie,49.955826,-55.596101,709,-0330,Y
A0K 0E7,NL,Portland Creek,50.157921,-57.613547,709,-0330,Y
A0K 0E8,NL,Port Saunders,50.647769,-57.302712,709,-0330,Y
A0K 0E9,NL,Reefs Harbour,51.007149,-57.01137,709,-0330,Y
A0K 0G1,NL,St Anthony East,52.75732,-56.795984,709,-0330,Y
A0K 0G2,NL,Bonne Bay,49.500731,-57.918283,709,-0330,Y
A0K 0G3,NL,Bird Cove,51.029852,-56.954526,709,-0330,Y
A0K 0G4,NL,Burlington,49.751856,-56.026532,709,-0330,Y
A0K 0G5,NL,Nippers Harbour,49.78615,-55.862095,709,-0330,Y
A0K 0G6,NL,Norris Point,49.527034,-57.884009,709,-0330,Y
A0K 0G7,NL,Parsons Pond,50.027123,-57.713808,709,-0330,Y
A0K 0G8,NL,Bide Arm,50.818055,-56.096467,709,-0330,Y
A0K 0G9,NL,Cooks Harbour,51.603227,-55.872747,709,-0330,Y
A0K 0H1,NL,Main Brook,51.184232,-56.019227,709,-0330,Y
A0K 0H2,NL,Pollards Point,49.757955,-56.91111,709,-0330,Y
A0K 0H3,NL,L'Anse au Clair,51.430023,-57.065414,709,-0330,Y
A0K 0H4,NL,St. Anthony,51.372827,-55.597132,709,-0330,Y
A0K 0H5,NL,Trout River,49.470971,-58.12629,709,-0330,Y
A0K 0H6,NL,Westport,49.787353,-56.636185,709,-0330,Y
A0K 0H7,NL,Eddies Cove,51.413002,-56.449147,709,-0330,Y
A0K 0H8,NL,Green Island Brook,51.39743,-56.525269,709,-0330,Y
A0K 0H9,NL,Cartwright,53.707725,-57.002844,709,-0400,Y
A0K 0J1,NL,Eddies Cove West,50.750283,-57.170138,709,-0330,Y
A0K 0J2,NL,Green Island Cove,51.382461,-56.572609,709,-0330,Y
A0K 0J3,NL,St Lunaire-Griquet,51.52048,-55.460941,709,-0330,Y
A0K 0J4,NL,Howley,49.169197,-57.118253,709,-0330,Y
A0K 0J5,NL,Jacksons Arm,49.866043,-56.794095,709,-0330,Y
A0K 0J6,NL,L'Anse au Loup,51.52444,-56.832157,709,-0330,Y
A0K 0J7,NL,Pacquet,49.991176,-55.885458,709,-0330,Y
A0K 0J8,NL,River of Ponds,50.525491,-57.402112,709,-0330,Y
A0K 0J9,NL,Lodge Bay,52.23101,-55.849552,709,-0330,Y
A0K 0K1,NL,Red Bay,51.730835,-56.425863,709,-0330,Y
A0K 0K2,NL,St Pauls,49.85547,-57.802901,709,-0330,Y
A0K 0K3,NL,West St Modeste,51.59197,-56.707748,709,-0330,Y
A0K 1A0,NL,Anchor Point,51.238341,-56.790229,709,-0330,Y
A0K 1B0,NL,Baie Verte,49.937688,-56.195098,709,-0330,Y
A0K 1C0,NL,Bartletts Harbour,50.94426,-56.984654,709,-0330,Y
A0K 1H0,NL,Bellburns,50.335509,-57.533217,709,-0330,Y
A0K 1J0,NL,Bide Arm,50.818055,-56.096467,709,-0330,Y
A0K 1K0,NL,Birchy Head,49.4702,-57.919314,709,-0330,Y
A0K 1L0,NL,Bird Cove,51.029852,-56.954526,709,-0330,Y
A0K 1M0,NL,Black Duck Cove,51.200826,-56.77674,709,-0330,Y
A0K 1N0,NL,Black Tickle,53.466498,-55.776732,709,-0400,Y
A0K 1P0,NL,Bonne Bay,49.500731,-57.918283,709,-0330,Y
A0K 1R0,NL,Brents Cove,49.935455,-55.71329,709,-0330,Y
A0K 1S0,NL,Burlington,49.751856,-56.026532,709,-0330,Y
A0K 1T0,NL,Lodge Bay,52.23101,-55.849552,709,-0330,Y
A0K 1V0,NL,Cartwright,53.707401,-57.004471,709,-0400,Y
A0K 1W0,NL,Castors River,50.938851,-56.954069,709,-0330,Y
A0K 1X0,NL,Coachmans Cove,50.060659,-56.157894,709,-0330,Y
A0K 1Y0,NL,Conche,50.885056,-55.895085,709,-0330,Y
A0K 1Z0,NL,Cooks Harbour,51.603227,-55.872747,709,-0330,Y
A0K 2A0,NL,Cow Head,49.913694,-57.793195,709,-0330,Y
A0K 2B0,NL,Croque,51.063417,-55.830505,709,-0330,Y
A0K 2C0,NL,Daniels Harbour,50.230075,-57.589061,709,-0330,Y
A0K 2G0,NL,Eddies Cove,51.413002,-56.449147,709,-0330,Y
A0K 2H0,NL,Eddies Cove West,50.750283,-57.170138,709,-0330,Y
A0K 2J0,NL,Englee,50.732398,-56.105916,709,-0330,Y
A0K 2M0,NL,Fleur de Lys,50.122322,-56.130061,709,-0330,Y
A0K 2N0,NL,Flowers Cove,51.297579,-56.729741,709,-0330,Y
A0K 2P0,NL,Forteau,51.472671,-56.957248,709,-0330,Y
A0K 2V0,NL,Green Island Brook,51.39743,-56.525269,709,-0330,Y
A0K 2W0,NL,Green Island Cove,51.382461,-56.572609,709,-0330,Y
A0K 2X0,NL,St Lunaire-Griquet,51.52048,-55.460941,709,-0330,Y
A0K 2Y0,NL,Hampden,49.541742,-56.859733,709,-0330,Y
A0K 3A0,NL,Harbour Round,49.920838,-55.719211,709,-0330,Y
A0K 3B0,NL,Hawkes Bay,50.606149,-57.171774,709,-0330,Y
A0K 3E0,NL,Howley,49.169197,-57.118253,709,-0330,Y
A0K 3H0,NL,Jacksons Arm,49.866043,-56.794095,709,-0330,Y
A0K 3K0,NL,L'Anse au Clair,51.430023,-57.065414,709,-0330,Y
A0K 3L0,NL,L'Anse au Loup,51.52444,-56.832157,709,-0330,Y
A0K 3M0,NL,La Scie,49.955826,-55.596101,709,-0330,Y
A0K 3N0,NL,Main Brook,51.184232,-56.019227,709,-0330,Y
A0K 3P0,NL,Marys Harbour,52.305148,-55.835977,709,-0330,Y
A0K 3R0,NL,Middle Arm GB,49.704277,-56.089503,709,-0330,Y
A0K 3S0,NL,Mings Bight,49.975862,-56.049215,709,-0330,Y
A0K 3T0,NL,Nippers Harbour,49.78615,-55.862095,709,-0330,Y
A0K 3V0,NL,Norris Point,49.527034,-57.884009,709,-0330,Y
A0K 3X0,NL,Pacquet,49.991176,-55.885458,709,-0330,Y
A0K 3Y0,NL,Paradise River,53.474186,-57.091618,709,-0330,Y
A0K 3Z0,NL,Parsons Pond,50.027123,-57.713808,709,-0330,Y
A0K 4A0,NL,Plum Point,51.077261,-56.883704,709,-0330,Y
A0K 4B0,NL,Pollards Point,49.757955,-56.91111,709,-0330,Y
A0K 4C0,NL,Port au Choix,50.702755,-57.363275,709,-0330,Y
A0K 4E0,NL,Port Hope Simpson,52.55361,-56.301632,709,-0330,Y
A0K 4G0,NL,Portland Creek,50.157921,-57.613547,709,-0330,Y
A0K 4H0,NL,Port Saunders,50.647769,-57.302712,709,-0330,Y
A0K 4J0,NL,Raleigh,51.559155,-55.729009,709,-0330,Y
A0K 4K0,NL,Red Bay,51.730835,-56.425863,709,-0330,Y
A0K 4L0,NL,Reefs Harbour,51.007149,-57.01137,709,-0330,Y
A0K 4M0,NL,River of Ponds,50.525491,-57.402112,709,-0330,Y
A0K 4N0,NL,Rocky Harbour,49.590165,-57.916398,709,-0330,Y
A0K 4P0,NL,Roddickton,50.869825,-56.118118,709,-0330,Y
A0K 4S0,NL,St. Anthony,51.372827,-55.597132,709,-0330,Y
A0K 4T0,NL,St Anthony East,52.75732,-56.795984,709,-0330,Y
A0K 4V0,NL,St Juliens,51.09935,-55.752724,709,-0330,Y
A0K 4W0,NL,St Lewis,52.290019,-55.835287,709,-0330,Y
A0K 4Y0,NL,St Pauls,49.85547,-57.802901,709,-0330,Y
A0K 4Z0,NL,Sallys Cove,49.731027,-57.935215,709,-0330,Y
A0K 5C0,NL,Sandy Cove,52.75732,-56.795984,709,-0330,Y
A0K 5E0,NL,Seal Cove WB,49.936059,-56.386688,709,-0330,Y
A0K 5G0,NL,Shoe Cove,49.916621,-55.565512,709,-0330,Y
A0K 5K0,NL,Sops Arm,49.769813,-56.892552,709,-0330,Y
A0K 5P0,NL,Trout River,49.470971,-58.12629,709,-0330,Y
A0K 5R0,NL,Westport,49.787353,-56.636185,709,-0330,Y
A0K 5S0,NL,West St Modeste,51.59197,-56.707748,709,-0330,Y
A0K 5T0,NL,Wild Cove WB,52.75732,-56.795984,709,-0330,Y
A0K 5X0,NL,Woodstock,49.966058,-55.882371,709,-0330,Y
A0K 5Y0,NL,Charlottetown LAB,52.778303,-56.153946,709,-0330,Y
A0L 0A1,NL,Lark Harbour,49.102231,-58.363646,709,-0330,Y
A0L 0A2,NL,Pasadena,49.013793,-57.586056,709,-0330,Y
A0L 0A3,NL,Coxs Cove,49.116523,-58.075751,709,-0330,Y
A0L 0A4,NL,Benoits Cove,49.00967,-58.13384,709,-0330,Y
A0L 0A5,NL,Frenchmans Cove BOI,49.084052,-58.130288,709,-0330,Y
A0L 0A6,NL,York Harbour,49.06082,-58.379731,709,-0330,Y
A0L 0A7,NL,Mount Moriah,48.968231,-58.041891,709,-0330,Y
A0L 1A0,NL,Benoits Cove,49.00671,-58.12172,709,-0330,Y
A0L 1C0,NL,Coxs Cove,49.116523,-58.075751,709,-0330,Y
A0L 1E0,NL,Frenchmans Cove BOI,49.084052,-58.130288,709,-0330,Y
A0L 1G0,NL,Gallants,48.703091,-58.241871,709,-0330,Y
A0L 1H0,NL,Lark Harbour,49.102231,-58.363646,709,-0330,Y
A0L 1J0,NL,Mount Moriah,48.968231,-58.041891,709,-0330,Y
A0L 1K0,NL,Pasadena,49.011748,-57.606924,709,-0330,Y
A0L 1L0,NL,York Harbour,49.06082,-58.379731,709,-0330,Y
A0M 0A1,NL,Rose Blanche,47.611586,-58.693407,709,-0330,Y
A0M 0A2,NL,Channel-Port-aux-Basques,47.570912,-59.135614,709,-0330,Y
A0M 0A3,NL,Burnt Islands BLP,47.604448,-58.874858,709,-0330,Y
A0M 0A4,NL,La Poile,48.231991,-58.227768,709,-0330,Y
A0M 0A5,NL,Isle-aux-Morts,47.587509,-58.974264,709,-0330,Y
A0M 1B0,NL,Burnt Islands BLP,47.604448,-58.874858,709,-0330,Y
A0M 1C0,NL,Channel-Port-aux-Basques,47.570912,-59.135614,709,-0330,Y
A0M 1J0,NL,Isle-aux-Morts,47.587509,-58.974264,709,-0330,Y
A0M 1K0,NL,La Poile,48.231991,-58.227768,709,-0330,Y
A0M 1P0,NL,Rose Blanche,47.611586,-58.693407,709,-0330,Y
A0N 0A1,NL,Barachois Brook,48.442949,-58.437384,709,-0330,Y
A0N 0A2,NL,Codroy,47.868377,-59.368441,709,-0330,Y
A0N 0A3,NL,West Bay Centre,48.587418,-58.904159,709,-0330,Y
A0N 0A4,NL,Stephenville Crossing,48.503397,-58.435321,709,-0330,Y
A0N 0A5,NL,Aguathuna,48.557054,-58.750883,709,-0330,Y
A0N 0A6,NL,Francois,47.585685,-56.753114,709,-0330,Y
A0N 0A7,NL,Ramea,47.522919,-57.386908,709,-0330,Y
A0N 0A8,NL,South Branch,47.910618,-59.028735,709,-0330,Y
A0N 0A9,NL,Noels Pond,48.5488,-58.525446,709,-0330,Y
A0N 0B1,NL,St Fintans,48.193371,-58.730782,709,-0330,Y
A0N 0B2,NL,Port au Port,48.557314,-58.715578,709,-0330,Y
A0N 0B3,NL,Burgeo,47.612361,-57.613889,709,-0330,Y
A0N 0B4,NL,Robinsons,48.249105,-58.809138,709,-0330,Y
A0N 0B5,NL,Grey River,47.589811,-57.127012,709,-0330,Y
A0N 0B6,NL,Heatherton,48.279455,-58.760418,709,-0330,Y
A0N 0B7,NL,St Davids,48.193371,-58.730782,709,-0330,Y
A0N 0B8,NL,Lourdes,48.64847,-58.996688,709,-0330,Y
A0N 0B9,NL,St Georges,48.429023,-58.477074,709,-0330,Y
A0N 0C1,NL,Doyles,47.832098,-59.163017,709,-0330,Y
A0N 0C2,NL,Grand Bay East,47.600607,-59.209285,709,-0330,Y
A0N 0C3,NL,Highlands,48.177641,-58.926405,709,-0330,Y
A0N 0C4,NL,St Andrews,47.773611,-59.313056,709,-0330,Y
A0N 0C5,NL,Jeffreys,48.193371,-58.730782,709,-0330,Y
A0N 0C6,NL,Cape St George,48.464782,-59.262594,709,-0330,Y
A0N 1A0,NL,Aguathuna,48.557054,-58.750883,709,-0330,Y
A0N 1B0,NL,Barachois Brook,48.442949,-58.437384,709,-0330,Y
A0N 1C0,NL,Cape Ray,47.641877,-59.285099,709,-0330,Y
A0N 1E0,NL,Cape St George,48.464782,-59.262594,709,-0330,Y
A0N 1G0,NL,Cartyville,48.240844,-58.803291,709,-0330,Y
A0N 1H0,NL,Codroy,47.868377,-59.368441,709,-0330,Y
A0N 1J0,NL,Doyles,47.832098,-59.163017,709,-0330,Y
A0N 1K0,NL,Grand Bay East,47.600607,-59.209285,709,-0330,Y
A0N 1M0,NL,Heatherton,48.279455,-58.760418,709,-0330,Y
A0N 1N0,NL,Highlands,48.177641,-58.926405,709,-0330,Y
A0N 1P0,NL,Jeffreys,48.193371,-58.730782,709,-0330,Y
A0N 1R0,NL,Lourdes,48.64847,-58.996688,709,-0330,Y
A0N 1S0,NL,Noels Pond,48.5488,-58.525446,709,-0330,Y
A0N 1T0,NL,Port au Port,48.557314,-58.715578,709,-0330,Y
A0N 1T1,NL,Cape St George,48.481622,-59.201648,709,-0330,Y
A0N 1V0,NL,Robinsons,48.249105,-58.809138,709,-0330,Y
A0N 1W0,NL,St Andrews,47.773611,-59.313056,709,-0330,Y
A0N 1X0,NL,St Davids,48.193371,-58.730782,709,-0330,Y
A0N 1Y0,NL,St Fintans,48.193371,-58.730782,709,-0330,Y
A0N 1Z0,NL,St Georges,48.429023,-58.477074,709,-0330,Y
A0N 2B0,NL,South Branch,47.910618,-59.028735,709,-0330,Y
A0N 2C0,NL,Stephenville Crossing,48.503397,-58.435321,709,-0330,Y
A0N 2E0,NL,West Bay Centre,48.587418,-58.904159,709,-0330,Y
A0N 2G0,NL,Black Duck Siding,48.575117,-58.382572,709,-0330,Y
A0N 2H0,NL,Burgeo,47.612361,-57.613889,709,-0330,Y
A0N 2J0,NL,Ramea,47.522919,-57.386908,709,-0330,Y
A0N 2K0,NL,Francois,47.585685,-56.753114,709,-0330,Y
A0N 2L0,NL,Grey River,47.589811,-57.127012,709,-0330,Y
A0P 0A1,NL,Nain,56.643148,-61.861249,709,-0400,Y
A0P 0A2,NL,Rigolet,54.179806,-58.427419,709,-0400,Y
A0P 0A3,NL,Happy Valley-Goose Bay,53.294371,-60.35929,709,-0400,Y
A0P 0A4,NL,Makkovik,55.073315,-59.173842,709,-0400,Y
A0P 0A5,NL,Happy Valley-Goose Bay,53.294371,-60.35929,709,-0400,Y
A0P 0A6,NL,North West River,53.52574,-60.144849,709,-0400,Y
A0P 0A7,NL,Hopedale,55.458899,-60.211089,709,-0400,Y
A0P 0A8,NL,Postville,54.895989,-59.830914,709,-0400,Y
A0P 0A9,NL,Natuashish,55.448333,-60.230848,709,-0400,Y
A0P 0B1,NL,Mud Lake,53.319455,-60.209975,709,-0400,Y
A0P 1A0,NL,Natuashish,55.448333,-60.230848,709,-0400,Y
A0P 1C0,NL,Happy Valley-Goose Bay,53.294371,-60.35929,709,-0400,Y
A0P 1E0,NL,Happy Valley-Goose Bay,53.294371,-60.35929,709,-0400,Y
A0P 1G0,NL,Hopedale,55.458899,-60.211089,709,-0400,Y
A0P 1J0,NL,Makkovik,55.073315,-59.173842,709,-0400,Y
A0P 1K0,NL,Mud Lake,53.319455,-60.209975,709,-0400,Y
A0P 1L0,NL,Nain,56.643148,-61.861249,709,-0400,Y
A0P 1M0,NL,North West River,53.52574,-60.144849,709,-0400,Y
A0P 1N0,NL,Postville,54.895989,-59.830914,709,-0400,Y
A0P 1P0,NL,Rigolet,54.179806,-58.427419,709,-0400,Y
A0P 1S0,NL,Happy Valley-Goose Bay,53.294371,-60.35929,709,-0400,Y
A0R 0A1,NL,Wabush,52.909558,-66.87514,709,-0400,Y
A0R 0A2,NL,Churchill Falls,53.525481,-63.979994,709,-0400,Y
A0R 1A0,NL,Churchill Falls,53.525481,-63.979994,709,-0400,Y
A0R 1B0,NL,Wabush,52.909558,-66.87514,709,-0400,Y
A1A 0A1,NL,St. John's,47.614057,-52.70797,709,-0330,Y
A1A 0A2,NL,St. John's,47.623992,-52.703744,709,-0330,Y
A1A 0A3,NL,St. John's,47.623992,-52.703744,709,-0330,Y
A1A 0A4,NL,St. John's,47.622285,-52.70641,709,-0330,Y
A1A 0A5,NL,St. John's,47.622492,-52.7046,709,-0330,Y
A1A 0A6,NL,St. John's,47.621032,-52.707222,709,-0330,Y
A1A 0A8,NL,St. John's,47.600161,-52.749336,709,-0330,Y
A1A 0A9,NL,St. John's,47.600161,-52.749336,709,-0330,Y
A1A 0B3,NL,St. John's,47.603312,-52.747948,709,-0330,Y
A1A 0B4,NL,St. John's,47.604773,-52.747005,709,-0330,Y
A1A 0B5,NL,St. John's,47.602891,-52.748221,709,-0330,Y
A1A 0B6,NL,St. John's,47.616983,-52.7049,709,-0330,Y
A1A 0B7,NL,St. John's,47.616503,-52.706254,709,-0330,Y
A1A 0B8,NL,St. John's,47.616503,-52.706254,709,-0330,Y
A1A 0B9,NL,St. John's,47.610166,-52.75219,709,-0330,Y
A1A 0C1,NL,St. John's,47.609848,-52.753866,709,-0330,Y
A1A 0C2,NL,St. John's,47.609848,-52.753866,709,-0330,Y
A1A 0C3,NL,St. John's,47.604492,-52.756905,709,-0330,Y
A1A 0C4,NL,St. John's,47.57573,-52.696769,709,-0330,Y
A1A 0C5,NL,St. John's,47.60882,-52.689097,709,-0330,Y
A1A 0C6,NL,St. John's,47.60882,-52.689097,709,-0330,Y
A1A 0C7,NL,St. John's,47.620795,-52.708539,709,-0330,Y
A1A 0C9,NL,St. John's,47.622098,-52.707784,709,-0330,Y
A1A 0E1,NL,St. John's,47.622098,-52.707784,709,-0330,Y
A1A 0E2,NL,St. John's,47.618891,-52.706469,709,-0330,Y
A1A 0E3,NL,St. John's,47.576999,-52.694271,709,-0330,Y
A1A 0E4,NL,St. John's,47.592194,-52.716337,709,-0330,Y
A1A 0E5,NL,St. John's,47.592194,-52.716337,709,-0330,Y
A1A 0E6,NL,St. John's,47.608233,-52.761834,709,-0330,Y
A1A 0E7,NL,St. John's,47.608233,-52.761834,709,-0330,Y
A1A 0E8,NL,St. John's,47.588119,-52.691403,709,-0330,Y
A1A 0G1,NL,St. John's,47.587716,-52.712022,709,-0330,Y
A1A 0G2,NL,St. John's,47.600346,-52.750595,709,-0330,Y
A1A 0G3,NL,St. John's,47.620433,-52.704713,709,-0330,Y
A1A 0G4,NL,St. John's,47.619641,-52.704045,709,-0330,Y
A1A 0G5,NL,St. John's,47.619641,-52.704045,709,-0330,Y
A1A 0G6,NL,St. John's,47.62087,-52.703493,709,-0330,Y
A1A 0G7,NL,St. John's,47.62087,-52.703493,709,-0330,Y
A1A 0G9,NL,St. John's,47.62129,-52.702161,709,-0330,Y
A1A 0H1,NL,St. John's,47.620708,-52.704219,709,-0330,Y
A1A 0H3,NL,St. John's,47.621531,-52.701403,709,-0330,Y
A1A 0H4,NL,St. John's,47.609818,-52.690848,709,-0330,Y
A1A 0H5,NL,St. John's,47.620013,-52.72139,709,-0330,Y
A1A 0H7,NL,St. John's,47.586502,-52.685666,709,-0330,Y
A1A 0H8,NL,St. John's,47.576782,-52.704506,709,-0330,Y
A1A 0H9,NL,St. John's,47.598833,-52.697817,709,-0330,Y
A1A 0J1,NL,St. John's,47.621018,-52.711004,709,-0330,Y
A1A 0J2,NL,St. John's,47.621018,-52.711004,709,-0330,Y
A1A 0J3,NL,St. John's,47.621312,-52.710418,709,-0330,Y
A1A 0J4,NL,St. John's,47.603783,-52.744321,709,-0330,Y
A1A 0J5,NL,St. John's,47.604118,-52.691927,709,-0330,Y
A1A 0J6,NL,St. John's,47.604118,-52.691927,709,-0330,Y
A1A 0J9,NL,St. John's,47.580019,-52.679194,709,-0330,Y
A1A 0K2,NL,St. John's,47.605035,-52.754098,709,-0330,Y
A1A 0K3,NL,St. John's,47.587596,-52.690525,709,-0330,Y
A1A 0K4,NL,St. John's,47.619078,-52.704607,709,-0330,Y
A1A 0K5,NL,St. John's,47.619078,-52.704607,709,-0330,Y
A1A 0K6,NL,St. John's,47.590724,-52.70972,709,-0330,Y
A1A 0K7,NL,St. John's,47.591799,-52.71961,709,-0330,Y
A1A 0K8,NL,St. John's,47.599497,-52.739492,709,-0330,Y
A1A 0K9,NL,St. John's,47.586107,-52.689883,709,-0330,Y
A1A 0L1,NL,St. John's,47.587716,-52.712022,709,-0330,Y
A1A 0L2,NL,St. John's,47.620013,-52.72139,709,-0330,Y
A1A 0L3,NL,St. John's,47.616636,-52.751149,709,-0330,Y
A1A 0L4,NL,St. John's,47.604142,-52.734565,709,-0330,Y
A1A 0L5,NL,St. John's,47.603273,-52.737189,709,-0330,Y
A1A 0L6,NL,St. John's,47.571264,-52.730129,709,-0330,Y
A1A 0L7,NL,St. John's,47.59377,-52.687695,709,-0330,Y
A1A 0L8,NL,St. John's,47.585894,-52.690288,709,-0330,Y
A1A 0L9,NL,St. John's,47.619676,-52.723389,709,-0330,Y
A1A 0M1,NL,St. John's,47.619676,-52.723389,709,-0330,Y
A1A 0M3,NL,St. John's,47.585212,-52.712025,709,-0330,Y
A1A 0M4,NL,St. John's,47.620508,-52.709168,709,-0330,Y
A1A 0M5,NL,St. John's,47.620896,-52.709104,709,-0330,Y
A1A 0M6,NL,St. John's,47.619916,-52.710231,709,-0330,Y
A1A 0M7,NL,St. John's,47.619916,-52.710231,709,-0330,Y
A1A 0M8,NL,St. John's,47.60069,-52.73735,709,-0330,Y
A1A 0M9,NL,St. John's,47.607267,-52.677809,709,-0330,Y
A1A 0N1,NL,St. John's,47.608528,-52.677892,709,-0330,Y
A1A 0N2,NL,St. John's,47.587596,-52.690525,709,-0330,Y
A1A 0N3,NL,St. John's,47.607225,-52.744849,709,-0330,Y
A1A 0N4,NL,St. John's,47.607084,-52.745769,709,-0330,Y
A1A 0N5,NL,St. John's,47.608193,-52.745178,709,-0330,Y
A1A 0N7,NL,St. John's,47.585837,-52.689612,709,-0330,Y
A1A 0N9,NL,St. John's,47.583662,-52.695333,709,-0330,Y
A1A 0P1,NL,St. John's,47.607769,-52.694399,709,-0330,Y
A1A 0P2,NL,St. John's,47.614101,-52.726182,709,-0330,Y
A1A 0P3,NL,St. John's,47.57113,-52.69763,709,-0330,Y
A1A 0P4,NL,St. John's,47.57113,-52.69763,709,-0330,Y
A1A 0P5,NL,St. John's,47.581166,-52.696323,709,-0330,Y
A1A 0P6,NL,St. John's,47.616332,-52.729032,709,-0330,Y
A1A 0P8,NL,St. John's,47.567033,-52.70461,709,-0330,Y
A1A 0P9,NL,St. John's,47.618108,-52.724607,709,-0330,Y
A1A 0R1,NL,St. John's,47.581228,-52.680623,709,-0330,Y
A1A 0R3,NL,St. John's,47.57113,-52.69763,709,-0330,Y
A1A 0R4,NL,St. John's,47.595814,-52.691423,709,-0330,Y
A1A 0R5,NL,St. John's,47.612603,-52.751919,709,-0330,Y
A1A 0R6,NL,St. John's,47.603952,-52.734933,709,-0330,Y
A1A 0R7,NL,St. John's,47.615031,-52.751445,709,-0330,Y
A1A 0R8,NL,St. John's,47.57113,-52.69763,709,-0330,Y
A1A 0R9,NL,St. John's,47.57113,-52.69763,709,-0330,Y
A1A 0S1,NL,St. John's,47.57113,-52.69763,709,-0330,Y
A1A 0S2,NL,St. John's,47.57113,-52.69763,709,-0330,Y
A1A 0S3,NL,St. John's,47.57113,-52.69763,709,-0330,Y
A1A 0S4,NL,St. John's,47.57113,-52.69763,709,-0330,Y
A1A 0S5,NL,St. John's,47.612603,-52.751919,709,-0330,Y
A1A 0S6,NL,St. John's,47.584655,-52.699078,709,-0330,Y
A1A 0S8,NL,St. John's,47.57113,-52.69763,709,-0330,Y
A1A 0T8,NL,St. John's,47.57113,-52.69763,709,-0330,Y
A1A 0T9,NL,St. John's,47.57113,-52.69763,709,-0330,Y
A1A 0V1,NL,St. John's,47.57113,-52.69763,709,-0330,Y
A1A 0V2,NL,St. John's,47.57113,-52.69763,709,-0330,Y
A1A 0V3,NL,St. John's,47.57113,-52.69763,709,-0330,Y
A1A 0V4,NL,St. John's,47.57113,-52.69763,709,-0330,Y
A1A 0V5,NL,St. John's,47.57113,-52.69763,709,-0330,Y
A1A 1A1,NL,St. John's,47.570804,-52.695878,709,-0330,Y
A1A 1A2,NL,St. John's,47.570804,-52.695878,709,-0330,Y
A1A 1A3,NL,St. John's,47.570134,-52.692989,709,-0330,Y
A1A 1A4,NL,St. John's,47.57102,-52.695743,709,-0330,Y
A1A 1A5,NL,St. John's,47.570521,-52.692101,709,-0330,Y
A1A 1A6,NL,St. John's,47.569355,-52.691089,709,-0330,Y
A1A 1A7,NL,St. John's,47.570265,-52.692053,709,-0330,Y
A1A 1A8,NL,St. John's,47.571859,-52.697345,709,-0330,Y
A1A 1A9,NL,St. John's,47.572078,-52.696399,709,-0330,Y
A1A 1B1,NL,St. John's,47.572166,-52.696021,709,-0330,Y
A1A 1B2,NL,St. John's,47.572745,-52.692312,709,-0330,Y
A1A 1B3,NL,St. John's,47.572745,-52.692312,709,-0330,Y
A1A 1B4,NL,St. John's,47.5715,-52.695609,709,-0330,Y
A1A 1B5,NL,St. John's,47.5715,-52.695609,709,-0330,Y
A1A 1B6,NL,St. John's,47.572722,-52.695627,709,-0330,Y
A1A 1B7,NL,St. John's,47.572549,-52.694409,709,-0330,Y
A1A 1B8,NL,St. John's,47.571859,-52.697345,709,-0330,Y
A1A 1B9,NL,St. John's,47.572445,-52.6978,709,-0330,Y
A1A 1C1,NL,St. John's,47.572689,-52.697675,709,-0330,Y
A1A 1C2,NL,St. John's,47.573382,-52.697658,709,-0330,Y
A1A 1C3,NL,St. John's,47.57492,-52.696934,709,-0330,Y
A1A 1C4,NL,St. John's,47.57492,-52.696934,709,-0330,Y
A1A 1C5,NL,St. John's,47.572689,-52.697675,709,-0330,Y
A1A 1C6,NL,St. John's,47.574038,-52.697393,709,-0330,Y
A1A 1C7,NL,St. John's,47.574038,-52.697393,709,-0330,Y
A1A 1C8,NL,St. John's,47.574462,-52.697274,709,-0330,Y
A1A 1C9,NL,St. John's,47.574462,-52.697274,709,-0330,Y
A1A 1E1,NL,St. John's,47.574438,-52.699493,709,-0330,Y
A1A 1E2,NL,St. John's,47.575524,-52.69749,709,-0330,Y
A1A 1E3,NL,St. John's,47.57573,-52.696769,709,-0330,Y
A1A 1E4,NL,St. John's,47.576661,-52.695024,709,-0330,Y
A1A 1E5,NL,St. John's,47.576661,-52.695024,709,-0330,Y
A1A 1E6,NL,St. John's,47.577632,-52.692382,709,-0330,Y
A1A 1E7,NL,St. John's,47.577974,-52.691406,709,-0330,Y
A1A 1E8,NL,St. John's,47.577632,-52.692382,709,-0330,Y
A1A 1E9,NL,St. John's,47.58152,-52.681625,709,-0330,Y
A1A 1G1,NL,St. John's,47.58152,-52.681625,709,-0330,Y
A1A 1G2,NL,St. John's,47.581373,-52.680208,709,-0330,Y
A1A 1G3,NL,St. John's,47.582625,-52.678972,709,-0330,Y
A1A 1G4,NL,St. John's,47.579918,-52.68366,709,-0330,Y
A1A 1G5,NL,St. John's,47.57962,-52.68031,709,-0330,Y
A1A 1G7,NL,St. John's,47.579707,-52.681512,709,-0330,Y
A1A 1G8,NL,St. John's,47.581638,-52.679259,709,-0330,Y
A1A 1G9,NL,St. John's,47.576299,-52.69583,709,-0330,Y
A1A 1H1,NL,St. John's,47.576933,-52.69425,709,-0330,Y
A1A 1H2,NL,St. John's,47.577103,-52.693991,709,-0330,Y
A1A 1H3,NL,St. John's,47.576623,-52.700647,709,-0330,Y
A1A 1H4,NL,St. John's,47.576623,-52.700647,709,-0330,Y
A1A 1H5,NL,St. John's,47.575301,-52.703205,709,-0330,Y
A1A 1H7,NL,St. John's,47.576675,-52.703508,709,-0330,Y
A1A 1H8,NL,St. John's,47.579677,-52.704606,709,-0330,Y
A1A 1H9,NL,St. John's,47.579677,-52.704606,709,-0330,Y
A1A 1J1,NL,St. John's,47.581231,-52.704421,709,-0330,Y
A1A 1J2,NL,St. John's,47.582714,-52.703299,709,-0330,Y
A1A 1J3,NL,St. John's,47.58225,-52.70367,709,-0330,Y
A1A 1J4,NL,St. John's,47.584048,-52.702571,709,-0330,Y
A1A 1J5,NL,St. John's,47.586481,-52.701731,709,-0330,Y
A1A 1J6,NL,St. John's,47.589708,-52.701943,709,-0330,Y
A1A 1J7,NL,St. John's,47.591342,-52.701597,709,-0330,Y
A1A 1J8,NL,St. John's,47.593196,-52.700979,709,-0330,Y
A1A 1J9,NL,St. John's,47.578198,-52.702982,709,-0330,Y
A1A 1K1,NL,St. John's,47.57954,-52.700762,709,-0330,Y
A1A 1K2,NL,St. John's,47.57954,-52.700762,709,-0330,Y
A1A 1K3,NL,St. John's,47.581085,-52.697847,709,-0330,Y
A1A 1K5,NL,St. John's,47.577757,-52.69981,709,-0330,Y
A1A 1K6,NL,St. John's,47.581085,-52.697847,709,-0330,Y
A1A 1K7,NL,St. John's,47.581085,-52.697847,709,-0330,Y
A1A 1K8,NL,St. John's,47.581739,-52.698081,709,-0330,Y
A1A 1K9,NL,St. John's,47.582178,-52.698175,709,-0330,Y
A1A 1L1,NL,St. John's,47.58314,-52.698831,709,-0330,Y
A1A 1L2,NL,St. John's,47.583821,-52.699651,709,-0330,Y
A1A 1L3,NL,St. John's,47.581739,-52.698081,709,-0330,Y
A1A 1L4,NL,St. John's,47.582199,-52.698778,709,-0330,Y
A1A 1L5,NL,St. John's,47.582199,-52.698778,709,-0330,Y
A1A 1L6,NL,St. John's,47.581863,-52.70004,709,-0330,Y
A1A 1L7,NL,St. John's,47.581277,-52.701351,709,-0330,Y
A1A 1L8,NL,St. John's,47.58314,-52.698831,709,-0330,Y
A1A 1L9,NL,St. John's,47.58314,-52.698831,709,-0330,Y
A1A 1M1,NL,St. John's,47.583821,-52.699651,709,-0330,Y
A1A 1M2,NL,St. John's,47.581863,-52.70004,709,-0330,Y
A1A 1M3,NL,St. John's,47.581863,-52.70004,709,-0330,Y
A1A 1M4,NL,St. John's,47.583079,-52.701019,709,-0330,Y
A1A 1M5,NL,St. John's,47.581277,-52.701351,709,-0330,Y
A1A 1M6,NL,St. John's,47.58268,-52.701751,709,-0330,Y
A1A 1M7,NL,St. John's,47.58268,-52.701751,709,-0330,Y
A1A 1M8,NL,St. John's,47.582495,-52.701736,709,-0330,Y
A1A 1M9,NL,St. John's,47.582495,-52.701736,709,-0330,Y
A1A 1N3,NL,St. John's,47.58445,-52.69222,709,-0330,Y
A1A 1N7,NL,St. John's,47.586502,-52.685666,709,-0330,Y
A1A 1P7,NL,St. John's,47.587596,-52.690525,709,-0330,Y
A1A 1P8,NL,St. John's,47.588735,-52.688664,709,-0330,Y
A1A 1R1,NL,St. John's,47.5889,-52.685969,709,-0330,Y
A1A 1R3,NL,St. John's,47.586846,-52.684932,709,-0330,Y
A1A 1R4,NL,St. John's,47.588363,-52.685402,709,-0330,Y
A1A 1R5,NL,St. John's,47.588622,-52.685231,709,-0330,Y
A1A 1R6,NL,St. John's,47.588882,-52.685832,709,-0330,Y
A1A 1R7,NL,St. John's,47.588735,-52.688664,709,-0330,Y
A1A 1S1,NL,St. John's,47.585894,-52.690288,709,-0330,Y
A1A 1S3,NL,St. John's,47.586984,-52.693848,709,-0330,Y
A1A 1S4,NL,St. John's,47.586794,-52.694376,709,-0330,Y
A1A 1S5,NL,St. John's,47.587371,-52.695127,709,-0330,Y
A1A 1S7,NL,St. John's,47.584013,-52.698873,709,-0330,Y
A1A 1T2,NL,St. John's,47.576222,-52.70544,709,-0330,Y
A1A 1T3,NL,St. John's,47.576222,-52.70544,709,-0330,Y
A1A 1T4,NL,St. John's,47.576954,-52.709934,709,-0330,Y
A1A 1T5,NL,St. John's,47.577949,-52.709075,709,-0330,Y
A1A 1T6,NL,St. John's,47.579285,-52.706965,709,-0330,Y
A1A 1T7,NL,St. John's,47.579285,-52.706965,709,-0330,Y
A1A 1T8,NL,St. John's,47.580759,-52.705433,709,-0330,Y
A1A 1T9,NL,St. John's,47.580759,-52.705433,709,-0330,Y
A1A 1V1,NL,St. John's,47.581549,-52.707264,709,-0330,Y
A1A 1V2,NL,St. John's,47.582566,-52.709053,709,-0330,Y
A1A 1V3,NL,St. John's,47.582231,-52.710358,709,-0330,Y
A1A 1V4,NL,St. John's,47.582231,-52.710358,709,-0330,Y
A1A 1V5,NL,St. John's,47.581776,-52.711354,709,-0330,Y
A1A 1V6,NL,St. John's,47.582769,-52.707294,709,-0330,Y
A1A 1V7,NL,St. John's,47.582769,-52.707294,709,-0330,Y
A1A 1V8,NL,St. John's,47.58245,-52.70834,709,-0330,Y
A1A 1V9,NL,St. John's,47.58245,-52.70834,709,-0330,Y
A1A 1W1,NL,St. John's,47.583672,-52.70796,709,-0330,Y
A1A 1W2,NL,St. John's,47.585171,-52.707978,709,-0330,Y
A1A 1W3,NL,St. John's,47.585171,-52.707978,709,-0330,Y
A1A 1W4,NL,St. John's,47.586363,-52.708771,709,-0330,Y
A1A 1W6,NL,St. John's,47.586363,-52.708771,709,-0330,Y
A1A 1W7,NL,St. John's,47.583699,-52.7103,709,-0330,Y
A1A 1W8,NL,St. John's,47.583699,-52.7103,709,-0330,Y
A1A 1W9,NL,St. John's,47.586363,-52.708771,709,-0330,Y
A1A 1X1,NL,St. John's,47.58429,-52.711091,709,-0330,Y
A1A 1X2,NL,St. John's,47.583597,-52.712917,709,-0330,Y
A1A 1X3,NL,St. John's,47.583597,-52.712917,709,-0330,Y
A1A 1X4,NL,St. John's,47.586271,-52.710523,709,-0330,Y
A1A 1X5,NL,St. John's,47.586271,-52.710523,709,-0330,Y
A1A 1X6,NL,St. John's,47.587224,-52.708659,709,-0330,Y
A1A 1X7,NL,St. John's,47.586583,-52.710567,709,-0330,Y
A1A 1X8,NL,St. John's,47.586478,-52.710989,709,-0330,Y
A1A 1X9,NL,St. John's,47.583326,-52.704011,709,-0330,Y
A1A 1Y1,NL,St. John's,47.583326,-52.704011,709,-0330,Y
A1A 1Y2,NL,St. John's,47.58445,-52.703954,709,-0330,Y
A1A 1Y3,NL,St. John's,47.58445,-52.703954,709,-0330,Y
A1A 1Y4,NL,St. John's,47.584729,-52.704601,709,-0330,Y
A1A 1Y5,NL,St. John's,47.584729,-52.704601,709,-0330,Y
A1A 1Y6,NL,St. John's,47.585135,-52.706929,709,-0330,Y
A1A 1Y7,NL,St. John's,47.585564,-52.704367,709,-0330,Y
A1A 1Y8,NL,St. John's,47.585564,-52.704367,709,-0330,Y
A1A 1Y9,NL,St. John's,47.587166,-52.704042,709,-0330,Y
A1A 1Z1,NL,St. John's,47.588139,-52.704007,709,-0330,Y
A1A 1Z2,NL,St. John's,47.589402,-52.703742,709,-0330,Y
A1A 1Z3,NL,St. John's,47.590964,-52.705815,709,-0330,Y
A1A 1Z4,NL,St. John's,47.592824,-52.70658,709,-0330,Y
A1A 1Z5,NL,St. John's,47.592824,-52.70658,709,-0330,Y
A1A 1Z6,NL,St. John's,47.589683,-52.70846,709,-0330,Y
A1A 1Z7,NL,St. John's,47.590441,-52.706516,709,-0330,Y
A1A 1Z8,NL,St. John's,47.590441,-52.706516,709,-0330,Y
A1A 1Z9,NL,St. John's,47.587286,-52.703031,709,-0330,Y
A1A 2A1,NL,St. John's,47.588176,-52.702731,709,-0330,Y
A1A 2A2,NL,St. John's,47.588176,-52.702731,709,-0330,Y
A1A 2A3,NL,St. John's,47.588176,-52.702731,709,-0330,Y
A1A 2A4,NL,St. John's,47.588176,-52.702731,709,-0330,Y
A1A 2A5,NL,St. John's,47.589708,-52.701943,709,-0330,Y
A1A 2A6,NL,St. John's,47.589641,-52.702819,709,-0330,Y
A1A 2A7,NL,St. John's,47.589641,-52.702819,709,-0330,Y
A1A 2A8,NL,St. John's,47.591036,-52.703858,709,-0330,Y
A1A 2A9,NL,St. John's,47.591036,-52.703858,709,-0330,Y
A1A 2B1,NL,St. John's,47.59217,-52.70342,709,-0330,Y
A1A 2B2,NL,St. John's,47.59217,-52.70342,709,-0330,Y
A1A 2B3,NL,St. John's,47.591342,-52.701597,709,-0330,Y
A1A 2B4,NL,St. John's,47.591342,-52.701597,709,-0330,Y
A1A 2B5,NL,St. John's,47.59215,-52.699834,709,-0330,Y
A1A 2B6,NL,St. John's,47.59309,-52.700198,709,-0330,Y
A1A 2B7,NL,St. John's,47.59309,-52.700198,709,-0330,Y
A1A 2B8,NL,St. John's,47.577958,-52.704888,709,-0330,Y
A1A 2B9,NL,St. John's,47.578306,-52.706904,709,-0330,Y
A1A 2C1,NL,St. John's,47.58017,-52.707964,709,-0330,Y
A1A 2C2,NL,St. John's,47.581237,-52.708251,709,-0330,Y
A1A 2C3,NL,St. John's,47.581237,-52.708251,709,-0330,Y
A1A 2C4,NL,St. John's,47.582112,-52.708732,709,-0330,Y
A1A 2C5,NL,St. John's,47.582566,-52.709053,709,-0330,Y
A1A 2C7,NL,St. John's,47.585212,-52.712025,709,-0330,Y
A1A 2C8,NL,St. John's,47.585212,-52.712025,709,-0330,Y
A1A 2C9,NL,St. John's,47.586163,-52.713262,709,-0330,Y
A1A 2E1,NL,St. John's,47.586163,-52.713262,709,-0330,Y
A1A 2E2,NL,St. John's,47.578568,-52.707139,709,-0330,Y
A1A 2E3,NL,St. John's,47.579084,-52.707398,709,-0330,Y
A1A 2E4,NL,St. John's,47.579169,-52.707054,709,-0330,Y
A1A 2E5,NL,St. John's,47.57953,-52.708897,709,-0330,Y
A1A 2E6,NL,St. John's,47.57953,-52.708897,709,-0330,Y
A1A 2E7,NL,St. John's,47.578298,-52.71043,709,-0330,Y
A1A 2E8,NL,St. John's,47.579709,-52.709946,709,-0330,Y
A1A 2E9,NL,St. John's,47.579709,-52.709946,709,-0330,Y
A1A 2G1,NL,St. John's,47.583936,-52.71329,709,-0330,Y
A1A 2G2,NL,St. John's,47.583936,-52.71329,709,-0330,Y
A1A 2G3,NL,St. John's,47.581231,-52.704421,709,-0330,Y
A1A 2G4,NL,St. John's,47.583416,-52.706327,709,-0330,Y
A1A 2G5,NL,St. John's,47.583416,-52.706327,709,-0330,Y
A1A 2G6,NL,St. John's,47.584185,-52.706658,709,-0330,Y
A1A 2G7,NL,St. John's,47.585851,-52.707406,709,-0330,Y
A1A 2G8,NL,St. John's,47.586727,-52.708191,709,-0330,Y
A1A 2G9,NL,St. John's,47.587224,-52.708659,709,-0330,Y
A1A 2H1,NL,St. John's,47.588306,-52.709598,709,-0330,Y
A1A 2H2,NL,St. John's,47.588306,-52.709598,709,-0330,Y
A1A 2H3,NL,St. John's,47.593674,-52.709668,709,-0330,Y
A1A 2H4,NL,St. John's,47.59703,-52.710664,709,-0330,Y
A1A 2H6,NL,St. John's,47.58225,-52.70367,709,-0330,Y
A1A 2H7,NL,St. John's,47.582877,-52.704475,709,-0330,Y
A1A 2H8,NL,St. John's,47.584048,-52.702571,709,-0330,Y
A1A 2H9,NL,St. John's,47.584048,-52.702571,709,-0330,Y
A1A 2J1,NL,St. John's,47.584729,-52.704601,709,-0330,Y
A1A 2J2,NL,St. John's,47.584729,-52.704601,709,-0330,Y
A1A 2J3,NL,St. John's,47.589003,-52.707932,709,-0330,Y
A1A 2J4,NL,St. John's,47.589003,-52.707932,709,-0330,Y
A1A 2J5,NL,St. John's,47.591017,-52.707398,709,-0330,Y
A1A 2J6,NL,St. John's,47.591017,-52.707398,709,-0330,Y
A1A 2J7,NL,St. John's,47.589641,-52.702819,709,-0330,Y
A1A 2J8,NL,St. John's,47.590972,-52.702997,709,-0330,Y
A1A 2J9,NL,St. John's,47.592632,-52.704291,709,-0330,Y
A1A 2K1,NL,St. John's,47.592972,-52.705747,709,-0330,Y
A1A 2K2,NL,St. John's,47.592972,-52.705747,709,-0330,Y
A1A 2K3,NL,St. John's,47.594058,-52.701977,709,-0330,Y
A1A 2K4,NL,St. John's,47.594058,-52.701977,709,-0330,Y
A1A 2K5,NL,St. John's,47.593966,-52.704263,709,-0330,Y
A1A 2K6,NL,St. John's,47.593594,-52.706898,709,-0330,Y
A1A 2K7,NL,St. John's,47.593249,-52.708165,709,-0330,Y
A1A 2K8,NL,St. John's,47.593249,-52.708165,709,-0330,Y
A1A 2K9,NL,St. John's,47.592972,-52.712789,709,-0330,Y
A1A 2L1,NL,St. John's,47.594658,-52.704325,709,-0330,Y
A1A 2L2,NL,St. John's,47.594658,-52.704325,709,-0330,Y
A1A 2L3,NL,St. John's,47.596393,-52.703224,709,-0330,Y
A1A 2L4,NL,St. John's,47.596276,-52.701957,709,-0330,Y
A1A 2L5,NL,St. John's,47.596393,-52.703224,709,-0330,Y
A1A 2L6,NL,St. John's,47.595421,-52.704403,709,-0330,Y
A1A 2L7,NL,St. John's,47.595524,-52.705963,709,-0330,Y
A1A 2L8,NL,St. John's,47.595524,-52.705963,709,-0330,Y
A1A 2L9,NL,St. John's,47.59563,-52.707323,709,-0330,Y
A1A 2M1,NL,St. John's,47.597831,-52.703827,709,-0330,Y
A1A 2M2,NL,St. John's,47.597831,-52.703827,709,-0330,Y
A1A 2M3,NL,St. John's,47.598087,-52.704876,709,-0330,Y
A1A 2M4,NL,St. John's,47.598087,-52.704876,709,-0330,Y
A1A 2M5,NL,St. John's,47.597758,-52.705823,709,-0330,Y
A1A 2M6,NL,St. John's,47.596955,-52.707739,709,-0330,Y
A1A 2M7,NL,St. John's,47.600923,-52.71319,709,-0330,Y
A1A 2M8,NL,St. John's,47.602377,-52.712239,709,-0330,Y
A1A 2M9,NL,St. John's,47.602377,-52.712239,709,-0330,Y
A1A 2N1,NL,St. John's,47.604392,-52.70987,709,-0330,Y
A1A 2N2,NL,St. John's,47.604744,-52.709203,709,-0330,Y
A1A 2N3,NL,St. John's,47.602639,-52.712677,709,-0330,Y
A1A 2N4,NL,St. John's,47.604404,-52.711473,709,-0330,Y
A1A 2N5,NL,St. John's,47.604404,-52.711473,709,-0330,Y
A1A 2N6,NL,St. John's,47.593449,-52.712959,709,-0330,Y
A1A 2N7,NL,St. John's,47.59388,-52.710352,709,-0330,Y
A1A 2N8,NL,St. John's,47.59388,-52.710352,709,-0330,Y
A1A 2N9,NL,St. John's,47.595527,-52.712415,709,-0330,Y
A1A 2P1,NL,St. John's,47.595527,-52.712415,709,-0330,Y
A1A 2P2,NL,St. John's,47.596391,-52.712975,709,-0330,Y
A1A 2P3,NL,St. John's,47.596391,-52.712975,709,-0330,Y
A1A 2P4,NL,St. John's,47.59493,-52.712608,709,-0330,Y
A1A 2P5,NL,St. John's,47.59493,-52.712608,709,-0330,Y
A1A 2P6,NL,St. John's,47.59478,-52.717058,709,-0330,Y
A1A 2P7,NL,St. John's,47.596042,-52.718883,709,-0330,Y
A1A 2P8,NL,St. John's,47.595414,-52.716451,709,-0330,Y
A1A 2P9,NL,St. John's,47.595414,-52.716451,709,-0330,Y
A1A 2R1,NL,St. John's,47.597241,-52.713509,709,-0330,Y
A1A 2R2,NL,St. John's,47.597241,-52.713509,709,-0330,Y
A1A 2R3,NL,St. John's,47.591902,-52.719243,709,-0330,Y
A1A 2R4,NL,St. John's,47.591902,-52.719243,709,-0330,Y
A1A 2R5,NL,St. John's,47.593367,-52.717309,709,-0330,Y
A1A 2R6,NL,St. John's,47.593367,-52.717309,709,-0330,Y
A1A 2R7,NL,St. John's,47.59142,-52.718556,709,-0330,Y
A1A 2R8,NL,St. John's,47.591902,-52.719243,709,-0330,Y
A1A 2R9,NL,St. John's,47.592673,-52.720356,709,-0330,Y
A1A 2S1,NL,St. John's,47.592673,-52.720356,709,-0330,Y
A1A 2S2,NL,St. John's,47.592194,-52.716337,709,-0330,Y
A1A 2S3,NL,St. John's,47.593727,-52.716828,709,-0330,Y
A1A 2S4,NL,St. John's,47.593727,-52.716828,709,-0330,Y
A1A 2S5,NL,St. John's,47.594661,-52.716722,709,-0330,Y
A1A 2S6,NL,St. John's,47.595414,-52.716451,709,-0330,Y
A1A 2S7,NL,St. John's,47.59618,-52.716892,709,-0330,Y
A1A 2S8,NL,St. John's,47.592972,-52.712789,709,-0330,Y
A1A 2S9,NL,St. John's,47.593449,-52.712959,709,-0330,Y
A1A 2T1,NL,St. John's,47.593449,-52.712959,709,-0330,Y
A1A 2T2,NL,St. John's,47.595527,-52.712415,709,-0330,Y
A1A 2T3,NL,St. John's,47.595527,-52.712415,709,-0330,Y
A1A 2T4,NL,St. John's,47.596391,-52.712975,709,-0330,Y
A1A 2T5,NL,St. John's,47.597241,-52.713509,709,-0330,Y
A1A 2T6,NL,St. John's,47.595727,-52.708657,709,-0330,Y
A1A 2T7,NL,St. John's,47.595727,-52.708657,709,-0330,Y
A1A 2T8,NL,St. John's,47.596544,-52.708776,709,-0330,Y
A1A 2T9,NL,St. John's,47.593708,-52.706476,709,-0330,Y
A1A 2V1,NL,St. John's,47.593708,-52.706476,709,-0330,Y
A1A 2V2,NL,St. John's,47.594712,-52.70554,709,-0330,Y
A1A 2V3,NL,St. John's,47.594712,-52.70554,709,-0330,Y
A1A 2V4,NL,St. John's,47.598326,-52.706369,709,-0330,Y
A1A 2V5,NL,St. John's,47.598326,-52.706369,709,-0330,Y
A1A 2V6,NL,St. John's,47.59563,-52.707323,709,-0330,Y
A1A 2V7,NL,St. John's,47.59563,-52.707323,709,-0330,Y
A1A 2V8,NL,St. John's,47.595524,-52.705963,709,-0330,Y
A1A 2V9,NL,St. John's,47.595524,-52.705963,709,-0330,Y
A1A 2W1,NL,St. John's,47.593966,-52.704263,709,-0330,Y
A1A 2W2,NL,St. John's,47.594658,-52.704325,709,-0330,Y
A1A 2W3,NL,St. John's,47.595421,-52.704403,709,-0330,Y
A1A 2W4,NL,St. John's,47.596466,-52.704331,709,-0330,Y
A1A 2W5,NL,St. John's,47.596466,-52.704331,709,-0330,Y
A1A 2W6,NL,St. John's,47.598087,-52.704876,709,-0330,Y
A1A 2W7,NL,St. John's,47.598611,-52.705318,709,-0330,Y
A1A 2W8,NL,St. John's,47.598611,-52.705318,709,-0330,Y
A1A 2W9,NL,St. John's,47.599277,-52.705885,709,-0330,Y
A1A 2X1,NL,St. John's,47.596842,-52.720351,709,-0330,Y
A1A 2Y5,NL,St. John's,47.599028,-52.703099,709,-0330,Y
A1A 2Y6,NL,St. John's,47.595613,-52.721716,709,-0330,Y
A1A 2Y7,NL,St. John's,47.595613,-52.721716,709,-0330,Y
A1A 2Y8,NL,St. John's,47.59436,-52.720033,709,-0330,Y
A1A 2Y9,NL,St. John's,47.59436,-52.720033,709,-0330,Y
A1A 2Z1,NL,St. John's,47.593176,-52.721322,709,-0330,Y
A1A 2Z2,NL,St. John's,47.59368,-52.722185,709,-0330,Y
A1A 2Z3,NL,St. John's,47.59368,-52.722185,709,-0330,Y
A1A 2Z4,NL,St. John's,47.593979,-52.722647,709,-0330,Y
A1A 2Z5,NL,St. John's,47.593176,-52.721322,709,-0330,Y
A1A 2Z6,NL,St. John's,47.593176,-52.721322,709,-0330,Y
A1A 2Z7,NL,St. John's,47.59368,-52.722185,709,-0330,Y
A1A 2Z8,NL,St. John's,47.59368,-52.722185,709,-0330,Y
A1A 2Z9,NL,St. John's,47.593979,-52.722647,709,-0330,Y
A1A 3A1,NL,St. John's,47.593979,-52.722647,709,-0330,Y
A1A 3A2,NL,St. John's,47.59516,-52.722499,709,-0330,Y
A1A 3A3,NL,St. John's,47.59516,-52.722499,709,-0330,Y
A1A 3A4,NL,St. John's,47.595613,-52.721716,709,-0330,Y
A1A 3A5,NL,St. John's,47.59516,-52.722499,709,-0330,Y
A1A 3A6,NL,St. John's,47.594742,-52.723337,709,-0330,Y
A1A 3A7,NL,St. John's,47.604744,-52.709203,709,-0330,Y
A1A 3A8,NL,St. John's,47.604744,-52.709203,709,-0330,Y
A1A 3A9,NL,St. John's,47.605586,-52.710042,709,-0330,Y
A1A 3B1,NL,St. John's,47.605586,-52.710042,709,-0330,Y
A1A 3B2,NL,St. John's,47.603845,-52.712141,709,-0330,Y
A1A 3B3,NL,St. John's,47.603845,-52.712141,709,-0330,Y
A1A 3B4,NL,St. John's,47.604933,-52.71258,709,-0330,Y
A1A 3B5,NL,St. John's,47.604933,-52.71258,709,-0330,Y
A1A 3B7,NL,St. John's,47.588581,-52.713764,709,-0330,Y
A1A 3B8,NL,St. John's,47.599028,-52.703099,709,-0330,Y
A1A 3C1,NL,St. John's,47.599028,-52.703099,709,-0330,Y
A1A 3C3,NL,St. John's,47.605212,-52.715804,709,-0330,Y
A1A 3C4,NL,St. John's,47.605212,-52.715804,709,-0330,Y
A1A 3C5,NL,St. John's,47.606661,-52.712981,709,-0330,Y
A1A 3C6,NL,St. John's,47.609731,-52.708925,709,-0330,Y
A1A 3C7,NL,St. John's,47.606478,-52.710617,709,-0330,Y
A1A 3C8,NL,St. John's,47.606478,-52.710617,709,-0330,Y
A1A 3C9,NL,St. John's,47.605622,-52.713112,709,-0330,Y
A1A 3E1,NL,St. John's,47.605622,-52.713112,709,-0330,Y
A1A 3E2,NL,St. John's,47.608721,-52.710091,709,-0330,Y
A1A 3E3,NL,St. John's,47.608721,-52.710091,709,-0330,Y
A1A 3E4,NL,St. John's,47.604649,-52.713165,709,-0330,Y
A1A 3E5,NL,St. John's,47.605267,-52.71393,709,-0330,Y
A1A 3E7,NL,St. John's,47.592914,-52.687149,709,-0330,Y
A1A 3E8,NL,St. John's,47.59377,-52.687695,709,-0330,Y
A1A 3E9,NL,St. John's,47.596242,-52.692723,709,-0330,Y
A1A 3G1,NL,St. John's,47.596556,-52.693586,709,-0330,Y
A1A 3G2,NL,St. John's,47.597116,-52.694494,709,-0330,Y
A1A 3G3,NL,St. John's,47.597426,-52.695396,709,-0330,Y
A1A 3G4,NL,St. John's,47.598455,-52.698236,709,-0330,Y
A1A 3G5,NL,St. John's,47.595338,-52.690377,709,-0330,Y
A1A 3G6,NL,St. John's,47.594419,-52.692244,709,-0330,Y
A1A 3G7,NL,St. John's,47.595955,-52.694497,709,-0330,Y
A1A 3G8,NL,St. John's,47.597029,-52.696713,709,-0330,Y
A1A 3G9,NL,St. John's,47.597029,-52.696713,709,-0330,Y
A1A 3H1,NL,St. John's,47.594856,-52.69091,709,-0330,Y
A1A 3H2,NL,St. John's,47.594856,-52.69091,709,-0330,Y
A1A 3H3,NL,St. John's,47.596556,-52.693586,709,-0330,Y
A1A 3H4,NL,St. John's,47.596556,-52.693586,709,-0330,Y
A1A 3H5,NL,St. John's,47.597472,-52.696592,709,-0330,Y
A1A 3H6,NL,St. John's,47.597007,-52.696383,709,-0330,Y
A1A 3H7,NL,St. John's,47.596551,-52.692487,709,-0330,Y
A1A 3H8,NL,St. John's,47.596551,-52.692487,709,-0330,Y
A1A 3H9,NL,St. John's,47.597116,-52.694494,709,-0330,Y
A1A 3J1,NL,St. John's,47.597116,-52.694494,709,-0330,Y
A1A 3J2,NL,St. John's,47.598439,-52.693303,709,-0330,Y
A1A 3J3,NL,St. John's,47.597426,-52.695396,709,-0330,Y
A1A 3J4,NL,St. John's,47.597426,-52.695396,709,-0330,Y
A1A 3J5,NL,St. John's,47.599638,-52.694691,709,-0330,Y
A1A 3J6,NL,St. John's,47.599638,-52.694691,709,-0330,Y
A1A 3J7,NL,St. John's,47.594644,-52.687004,709,-0330,Y
A1A 3J8,NL,St. John's,47.594644,-52.687004,709,-0330,Y
A1A 3J9,NL,St. John's,47.594644,-52.687004,709,-0330,Y
A1A 3K1,NL,St. John's,47.594644,-52.687004,709,-0330,Y
A1A 3K2,NL,St. John's,47.597557,-52.687165,709,-0330,Y
A1A 3K3,NL,St. John's,47.598627,-52.686173,709,-0330,Y
A1A 3K4,NL,St. John's,47.598627,-52.686173,709,-0330,Y
A1A 3K5,NL,St. John's,47.599611,-52.693112,709,-0330,Y
A1A 3K6,NL,St. John's,47.57954,-52.700762,709,-0330,Y
A1A 3K7,NL,St. John's,47.596942,-52.688596,709,-0330,Y
A1A 3K8,NL,St. John's,47.597774,-52.68833,709,-0330,Y
A1A 3K9,NL,St. John's,47.599566,-52.688453,709,-0330,Y
A1A 3L1,NL,St. John's,47.59985,-52.689687,709,-0330,Y
A1A 3L2,NL,St. John's,47.59826,-52.689297,709,-0330,Y
A1A 3L3,NL,St. John's,47.59826,-52.689297,709,-0330,Y
A1A 3L4,NL,St. John's,47.599064,-52.690959,709,-0330,Y
A1A 3L5,NL,St. John's,47.599064,-52.690959,709,-0330,Y
A1A 3L6,NL,St. John's,47.596942,-52.688596,709,-0330,Y
A1A 3L7,NL,St. John's,47.595338,-52.690377,709,-0330,Y
A1A 3L8,NL,St. John's,47.595165,-52.689158,709,-0330,Y
A1A 3L9,NL,St. John's,47.600362,-52.697068,709,-0330,Y
A1A 3M1,NL,St. John's,47.600362,-52.697068,709,-0330,Y
A1A 3M2,NL,St. John's,47.599139,-52.699455,709,-0330,Y
A1A 3M3,NL,St. John's,47.599139,-52.699455,709,-0330,Y
A1A 3M4,NL,St. John's,47.599657,-52.699126,709,-0330,Y
A1A 3M5,NL,St. John's,47.600606,-52.698252,709,-0330,Y
A1A 3M6,NL,St. John's,47.600606,-52.698252,709,-0330,Y
A1A 3M7,NL,St. John's,47.602187,-52.695989,709,-0330,Y
A1A 3M8,NL,St. John's,47.603294,-52.696596,709,-0330,Y
A1A 3M9,NL,St. John's,47.602512,-52.697342,709,-0330,Y
A1A 3N1,NL,St. John's,47.602512,-52.697342,709,-0330,Y
A1A 3N2,NL,St. John's,47.605008,-52.695105,709,-0330,Y
A1A 3N3,NL,St. John's,47.605008,-52.695105,709,-0330,Y
A1A 3N4,NL,St. John's,47.604172,-52.69745,709,-0330,Y
A1A 3N5,NL,St. John's,47.602196,-52.694126,709,-0330,Y
A1A 3N6,NL,St. John's,47.602805,-52.69553,709,-0330,Y
A1A 3N7,NL,St. John's,47.602805,-52.69553,709,-0330,Y
A1A 3N8,NL,St. John's,47.603596,-52.697074,709,-0330,Y
A1A 3N9,NL,St. John's,47.600845,-52.698773,709,-0330,Y
A1A 3P1,NL,St. John's,47.600845,-52.698773,709,-0330,Y
A1A 3P2,NL,St. John's,47.599657,-52.699126,709,-0330,Y
A1A 3P3,NL,St. John's,47.599657,-52.699126,709,-0330,Y
A1A 3P4,NL,St. John's,47.594836,-52.688634,709,-0330,Y
A1A 3P5,NL,St. John's,47.597639,-52.696267,709,-0330,Y
A1A 3P6,NL,St. John's,47.604209,-52.695508,709,-0330,Y
A1A 3P7,NL,St. John's,47.598212,-52.699601,709,-0330,Y
A1A 3P8,NL,St. John's,47.598212,-52.699601,709,-0330,Y
A1A 3P9,NL,St. John's,47.58795,-52.688467,709,-0330,Y
A1A 3R1,NL,St. John's,47.595727,-52.708657,709,-0330,Y
A1A 3R2,NL,St. John's,47.598455,-52.698236,709,-0330,Y
A1A 3R3,NL,St. John's,47.601593,-52.702214,709,-0330,Y
A1A 3R4,NL,St. John's,47.577698,-52.70446,709,-0330,Y
A1A 3R5,NL,St. John's,47.595519,-52.690217,709,-0330,Y
A1A 3R6,NL,St. John's,47.591902,-52.719243,709,-0330,Y
A1A 3R7,NL,St. John's,47.599333,-52.699876,709,-0330,Y
A1A 3R8,NL,St. John's,47.600739,-52.70137,709,-0330,Y
A1A 3R9,NL,St. John's,47.601512,-52.705378,709,-0330,Y
A1A 3S1,NL,St. John's,47.602972,-52.704399,709,-0330,Y
A1A 3S2,NL,St. John's,47.602972,-52.704399,709,-0330,Y
A1A 3S3,NL,St. John's,47.601665,-52.701542,709,-0330,Y
A1A 3S4,NL,St. John's,47.600739,-52.70137,709,-0330,Y
A1A 3S5,NL,St. John's,47.587385,-52.690868,709,-0330,Y
A1A 3S6,NL,St. John's,47.570876,-52.695564,709,-0330,Y
A1A 3S8,NL,St. John's,47.601593,-52.702214,709,-0330,Y
A1A 3S9,NL,St. John's,47.603007,-52.700113,709,-0330,Y
A1A 3T1,NL,St. John's,47.603707,-52.694584,709,-0330,Y
A1A 3T3,NL,St. John's,47.577632,-52.692382,709,-0330,Y
A1A 3T5,NL,St. John's,47.599028,-52.703099,709,-0330,Y
A1A 3T7,NL,St. John's,47.597186,-52.699548,709,-0330,Y
A1A 3V1,NL,St. John's,47.597492,-52.70199,709,-0330,Y
A1A 3V2,NL,St. John's,47.598833,-52.697817,709,-0330,Y
A1A 3V3,NL,St. John's,47.596238,-52.721044,709,-0330,Y
A1A 3V4,NL,St. John's,47.596349,-52.719439,709,-0330,Y
A1A 3V5,NL,St. John's,47.597116,-52.694494,709,-0330,Y
A1A 3V9,NL,St. John's,47.582437,-52.702543,709,-0330,Y
A1A 3W1,NL,St. John's,47.596319,-52.721915,709,-0330,Y
A1A 3W2,NL,St. John's,47.596319,-52.721915,709,-0330,Y
A1A 3W4,NL,St. John's,47.597873,-52.702688,709,-0330,Y
A1A 3W5,NL,St. John's,47.598674,-52.703024,709,-0330,Y
A1A 3W6,NL,St. John's,47.598674,-52.703024,709,-0330,Y
A1A 3W7,NL,St. John's,47.593062,-52.702857,709,-0330,Y
A1A 3W8,NL,St. John's,47.603071,-52.716437,709,-0330,Y
A1A 3W9,NL,St. John's,47.600725,-52.702973,709,-0330,Y
A1A 3X1,NL,St. John's,47.600725,-52.702973,709,-0330,Y
A1A 3X2,NL,St. John's,47.598693,-52.702195,709,-0330,Y
A1A 3X3,NL,St. John's,47.593913,-52.697477,709,-0330,Y
A1A 3X4,NL,St. John's,47.594016,-52.698438,709,-0330,Y
A1A 3X5,NL,St. John's,47.594016,-52.698438,709,-0330,Y
A1A 3X6,NL,St. John's,47.595031,-52.70036,709,-0330,Y
A1A 3X7,NL,St. John's,47.594925,-52.699192,709,-0330,Y
A1A 3X9,NL,St. John's,47.594735,-52.697876,709,-0330,Y
A1A 3Y1,NL,St. John's,47.594272,-52.696185,709,-0330,Y
A1A 3Y2,NL,St. John's,47.594272,-52.696185,709,-0330,Y
A1A 3Y4,NL,St. John's,47.594013,-52.698872,709,-0330,Y
A1A 3Y6,NL,St. John's,47.594814,-52.696373,709,-0330,Y
A1A 3Y7,NL,St. John's,47.594814,-52.696373,709,-0330,Y
A1A 3Y8,NL,St. John's,47.594987,-52.69774,709,-0330,Y
A1A 3Y9,NL,St. John's,47.594987,-52.69774,709,-0330,Y
A1A 3Z1,NL,St. John's,47.595782,-52.698282,709,-0330,Y
A1A 3Z2,NL,St. John's,47.595782,-52.698282,709,-0330,Y
A1A 3Z3,NL,St. John's,47.596477,-52.699965,709,-0330,Y
A1A 3Z4,NL,St. John's,47.596477,-52.699965,709,-0330,Y
A1A 3Z5,NL,St. John's,47.595782,-52.698282,709,-0330,Y
A1A 3Z6,NL,St. John's,47.595782,-52.698282,709,-0330,Y
A1A 3Z7,NL,St. John's,47.596362,-52.699192,709,-0330,Y
A1A 3Z9,NL,St. John's,47.576661,-52.695024,709,-0330,Y
A1A 4A1,NL,St. John's,47.578198,-52.702982,709,-0330,Y
A1A 4A2,NL,St. John's,47.601512,-52.705378,709,-0330,Y
A1A 4A3,NL,St. John's,47.601361,-52.706791,709,-0330,Y
A1A 4A4,NL,St. John's,47.601198,-52.707616,709,-0330,Y
A1A 4A5,NL,St. John's,47.600477,-52.709304,709,-0330,Y
A1A 4A6,NL,St. John's,47.601746,-52.708706,709,-0330,Y
A1A 4A7,NL,St. John's,47.601746,-52.708706,709,-0330,Y
A1A 4A8,NL,St. John's,47.602789,-52.70815,709,-0330,Y
A1A 4A9,NL,St. John's,47.601361,-52.706791,709,-0330,Y
A1A 4B1,NL,St. John's,47.601746,-52.708706,709,-0330,Y
A1A 4B2,NL,St. John's,47.599741,-52.708924,709,-0330,Y
A1A 4B3,NL,St. John's,47.592194,-52.716337,709,-0330,Y
A1A 4B4,NL,St. John's,47.596857,-52.717252,709,-0330,Y
A1A 4B5,NL,St. John's,47.597937,-52.713925,709,-0330,Y
A1A 4B6,NL,St. John's,47.596042,-52.718883,709,-0330,Y
A1A 4B7,NL,St. John's,47.586478,-52.710989,709,-0330,Y
A1A 4B8,NL,St. John's,47.60429,-52.717876,709,-0330,Y
A1A 4B9,NL,St. John's,47.597937,-52.713925,709,-0330,Y
A1A 4C1,NL,St. John's,47.579918,-52.68366,709,-0330,Y
A1A 4C2,NL,St. John's,47.580706,-52.68212,709,-0330,Y
A1A 4C3,NL,St. John's,47.599348,-52.7115,709,-0330,Y
A1A 4C4,NL,St. John's,47.597655,-52.717928,709,-0330,Y
A1A 4C5,NL,St. John's,47.586107,-52.689883,709,-0330,Y
A1A 4C6,NL,St. John's,47.600166,-52.71391,709,-0330,Y
A1A 4C7,NL,St. John's,47.600923,-52.71319,709,-0330,Y
A1A 4C8,NL,St. John's,47.601998,-52.715117,709,-0330,Y
A1A 4C9,NL,St. John's,47.603071,-52.716437,709,-0330,Y
A1A 4E1,NL,St. John's,47.599607,-52.711651,709,-0330,Y
A1A 4E2,NL,St. John's,47.597555,-52.715195,709,-0330,Y
A1A 4E3,NL,St. John's,47.599026,-52.713559,709,-0330,Y
A1A 4E4,NL,St. John's,47.599211,-52.707008,709,-0330,Y
A1A 4E6,NL,St. John's,47.596584,-52.718156,709,-0330,Y
A1A 4E9,NL,St. John's,47.600229,-52.715698,709,-0330,Y
A1A 4G1,NL,St. John's,47.598498,-52.716928,709,-0330,Y
A1A 4G2,NL,St. John's,47.598498,-52.716928,709,-0330,Y
A1A 4G3,NL,St. John's,47.600166,-52.71391,709,-0330,Y
A1A 4G4,NL,St. John's,47.600166,-52.71391,709,-0330,Y
A1A 4G5,NL,St. John's,47.599264,-52.713105,709,-0330,Y
A1A 4G7,NL,St. John's,47.599348,-52.7115,709,-0330,Y
A1A 4G8,NL,St. John's,47.601037,-52.715827,709,-0330,Y
A1A 4G9,NL,St. John's,47.598513,-52.71794,709,-0330,Y
A1A 4H6,NL,St. John's,47.600613,-52.703894,709,-0330,Y
A1A 4H7,NL,St. John's,47.588581,-52.713764,709,-0330,Y
A1A 4H9,NL,St. John's,47.598513,-52.71794,709,-0330,Y
A1A 4J9,NL,St. John's,47.599379,-52.717834,709,-0330,Y
A1A 4K1,NL,St. John's,47.593913,-52.697477,709,-0330,Y
A1A 4L3,NL,St. John's,47.595519,-52.690217,709,-0330,Y
A1A 4L6,NL,St. John's,47.581231,-52.704421,709,-0330,Y
A1A 4L7,NL,St. John's,47.599858,-52.717339,709,-0330,Y
A1A 4M2,NL,St. John's,47.595166,-52.7022,709,-0330,Y
A1A 4M3,NL,St. John's,47.596276,-52.701957,709,-0330,Y
A1A 4M6,NL,St. John's,47.595166,-52.7022,709,-0330,Y
A1A 4M7,NL,St. John's,47.595166,-52.7022,709,-0330,Y
A1A 4M8,NL,St. John's,47.595166,-52.7022,709,-0330,Y
A1A 4N2,NL,St. John's,47.60425,-52.707343,709,-0330,Y
A1A 4N3,NL,St. John's,47.60425,-52.707343,709,-0330,Y
A1A 4N4,NL,St. John's,47.603323,-52.707971,709,-0330,Y
A1A 4N5,NL,St. John's,47.605534,-52.707619,709,-0330,Y
A1A 4N6,NL,St. John's,47.60668,-52.708508,709,-0330,Y
A1A 4N7,NL,St. John's,47.605885,-52.707903,709,-0330,Y
A1A 4N8,NL,St. John's,47.606235,-52.708187,709,-0330,Y
A1A 4N9,NL,St. John's,47.606235,-52.708187,709,-0330,Y
A1A 4P1,NL,St. John's,47.606756,-52.70849,709,-0330,Y
A1A 4P2,NL,St. John's,47.606756,-52.70849,709,-0330,Y
A1A 4P3,NL,St. John's,47.606756,-52.70849,709,-0330,Y
A1A 4P4,NL,St. John's,47.609428,-52.706735,709,-0330,Y
A1A 4P5,NL,St. John's,47.609428,-52.706735,709,-0330,Y
A1A 4P6,NL,St. John's,47.606756,-52.70849,709,-0330,Y
A1A 4P7,NL,St. John's,47.609428,-52.706735,709,-0330,Y
A1A 4P8,NL,St. John's,47.610356,-52.706266,709,-0330,Y
A1A 4R1,NL,St. John's,47.598925,-52.716083,709,-0330,Y
A1A 4R2,NL,St. John's,47.597358,-52.721148,709,-0330,Y
A1A 4R3,NL,St. John's,47.597387,-52.721441,709,-0330,Y
A1A 4R4,NL,St. John's,47.598435,-52.721255,709,-0330,Y
A1A 4R5,NL,St. John's,47.598536,-52.722137,709,-0330,Y
A1A 4R6,NL,St. John's,47.598786,-52.722976,709,-0330,Y
A1A 4R7,NL,St. John's,47.60689,-52.714329,709,-0330,Y
A1A 4R8,NL,St. John's,47.60689,-52.714329,709,-0330,Y
A1A 4R9,NL,St. John's,47.60689,-52.714329,709,-0330,Y
A1A 4S1,NL,St. John's,47.606527,-52.715116,709,-0330,Y
A1A 4S2,NL,St. John's,47.606527,-52.715116,709,-0330,Y
A1A 4S3,NL,St. John's,47.605895,-52.716479,709,-0330,Y
A1A 4S4,NL,St. John's,47.605554,-52.716142,709,-0330,Y
A1A 4S5,NL,St. John's,47.606721,-52.717273,709,-0330,Y
A1A 4S6,NL,St. John's,47.597658,-52.719016,709,-0330,Y
A1A 4S7,NL,St. John's,47.597658,-52.719016,709,-0330,Y
A1A 4S8,NL,St. John's,47.597658,-52.719016,709,-0330,Y
A1A 4S9,NL,St. John's,47.59803,-52.718947,709,-0330,Y
A1A 4T1,NL,St. John's,47.598401,-52.718878,709,-0330,Y
A1A 4T2,NL,St. John's,47.598209,-52.718601,709,-0330,Y
A1A 4T3,NL,St. John's,47.59857,-52.718998,709,-0330,Y
A1A 4T4,NL,St. John's,47.59942,-52.721042,709,-0330,Y
A1A 4T5,NL,St. John's,47.59857,-52.718998,709,-0330,Y
A1A 4T6,NL,St. John's,47.598435,-52.721255,709,-0330,Y
A1A 4T7,NL,St. John's,47.59909,-52.721559,709,-0330,Y
A1A 4T8,NL,St. John's,47.59942,-52.721042,709,-0330,Y
A1A 4T9,NL,St. John's,47.599582,-52.721453,709,-0330,Y
A1A 4V1,NL,St. John's,47.599634,-52.722531,709,-0330,Y
A1A 4V2,NL,St. John's,47.599744,-52.721863,709,-0330,Y
A1A 4V3,NL,St. John's,47.611018,-52.708635,709,-0330,Y
A1A 4V4,NL,St. John's,47.611355,-52.707584,709,-0330,Y
A1A 4V5,NL,St. John's,47.611355,-52.707584,709,-0330,Y
A1A 4V6,NL,St. John's,47.610513,-52.710474,709,-0330,Y
A1A 4V7,NL,St. John's,47.610849,-52.709393,709,-0330,Y
A1A 4V9,NL,St. John's,47.609278,-52.712092,709,-0330,Y
A1A 4W1,NL,St. John's,47.61004,-52.711357,709,-0330,Y
A1A 4W2,NL,St. John's,47.61004,-52.711357,709,-0330,Y
A1A 4W3,NL,St. John's,47.608099,-52.713861,709,-0330,Y
A1A 4W4,NL,St. John's,47.597358,-52.721148,709,-0330,Y
A1A 4W5,NL,St. John's,47.597445,-52.722028,709,-0330,Y
A1A 4W6,NL,St. John's,47.597445,-52.722028,709,-0330,Y
A1A 4W7,NL,St. John's,47.597428,-52.722739,709,-0330,Y
A1A 4W8,NL,St. John's,47.601034,-52.739391,709,-0330,Y
A1A 4W9,NL,St. John's,47.600677,-52.739999,709,-0330,Y
A1A 4X1,NL,St. John's,47.597697,-52.745211,709,-0330,Y
A1A 4X2,NL,St. John's,47.604836,-52.747193,709,-0330,Y
A1A 4X3,NL,St. John's,47.604836,-52.747193,709,-0330,Y
A1A 4X4,NL,St. John's,47.605396,-52.748887,709,-0330,Y
A1A 4X5,NL,St. John's,47.603367,-52.750654,709,-0330,Y
A1A 4X6,NL,St. John's,47.603727,-52.750239,709,-0330,Y
A1A 4X7,NL,St. John's,47.605178,-52.751407,709,-0330,Y
A1A 4X8,NL,St. John's,47.606922,-52.754806,709,-0330,Y
A1A 4X9,NL,St. John's,47.606004,-52.759731,709,-0330,Y
A1A 4Y1,NL,St. John's,47.606027,-52.761029,709,-0330,Y
A1A 4Y2,NL,St. John's,47.609004,-52.76163,709,-0330,Y
A1A 4Y3,NL,St. John's,47.60635,-52.742413,709,-0330,Y
A1A 4Y4,NL,St. John's,47.608624,-52.742069,709,-0330,Y
A1A 4Y5,NL,St. John's,47.598243,-52.732789,709,-0330,Y
A1A 4Y6,NL,St. John's,47.614059,-52.724004,709,-0330,Y
A1A 4Y7,NL,St. John's,47.614756,-52.723847,709,-0330,Y
A1A 4Y8,NL,St. John's,47.613492,-52.727433,709,-0330,Y
A1A 4Y9,NL,St. John's,47.612217,-52.729777,709,-0330,Y
A1A 4Z1,NL,St. John's,47.610919,-52.728598,709,-0330,Y
A1A 4Z2,NL,St. John's,47.611235,-52.727964,709,-0330,Y
A1A 4Z3,NL,St. John's,47.611235,-52.727964,709,-0330,Y
A1A 4Z4,NL,St. John's,47.612648,-52.727149,709,-0330,Y
A1A 4Z5,NL,St. John's,47.612957,-52.724873,709,-0330,Y
A1A 4Z6,NL,St. John's,47.607112,-52.766108,709,-0330,Y
A1A 4Z7,NL,St. John's,47.602348,-52.743517,709,-0330,Y
A1A 4Z8,NL,St. John's,47.601877,-52.752944,709,-0330,Y
A1A 4Z9,NL,St. John's,47.610794,-52.722457,709,-0330,Y
A1A 5A1,NL,St. John's,47.603479,-52.737737,709,-0330,Y
A1A 5A2,NL,St. John's,47.596014,-52.724731,709,-0330,Y
A1A 5A3,NL,St. John's,47.597873,-52.723412,709,-0330,Y
A1A 5A4,NL,St. John's,47.60964,-52.702599,709,-0330,Y
A1A 5A5,NL,St. John's,47.597215,-52.724382,709,-0330,Y
A1A 5A6,NL,St. John's,47.596879,-52.725521,709,-0330,Y
A1A 5A7,NL,St. John's,47.610271,-52.705459,709,-0330,Y
A1A 5A8,NL,St. John's,47.610464,-52.703855,709,-0330,Y
A1A 5A9,NL,St. John's,47.606588,-52.705827,709,-0330,Y
A1A 5B1,NL,St. John's,47.595761,-52.72521,709,-0330,Y
A1A 5B2,NL,St. John's,47.599028,-52.703099,709,-0330,Y
A1A 5B4,NL,St. John's,47.588581,-52.713764,709,-0330,Y
A1A 5B5,NL,St. John's,47.599028,-52.703099,709,-0330,Y
A1A 5B6,NL,St. John's,47.61254,-52.703814,709,-0330,Y
A1A 5B7,NL,St. John's,47.6084,-52.718225,709,-0330,Y
A1A 5B8,NL,St. John's,47.609051,-52.7171,709,-0330,Y
A1A 5B9,NL,St. John's,47.609957,-52.714509,709,-0330,Y
A1A 5C1,NL,St. John's,47.609957,-52.714509,709,-0330,Y
A1A 5C2,NL,St. John's,47.607234,-52.717314,709,-0330,Y
A1A 5C3,NL,St. John's,47.611165,-52.702109,709,-0330,Y
A1A 5C4,NL,St. John's,47.612162,-52.699238,709,-0330,Y
A1A 5C5,NL,St. John's,47.612215,-52.702421,709,-0330,Y
A1A 5C6,NL,St. John's,47.604826,-52.691967,709,-0330,Y
A1A 5C7,NL,St. John's,47.604591,-52.691462,709,-0330,Y
A1A 5C9,NL,St. John's,47.60429,-52.717876,709,-0330,Y
A1A 5E2,NL,St. John's,47.597426,-52.712157,709,-0330,Y
A1A 5E3,NL,St. John's,47.600883,-52.707391,709,-0330,Y
A1A 5E4,NL,St. John's,47.608132,-52.714238,709,-0330,Y
A1A 5E5,NL,St. John's,47.579245,-52.707747,709,-0330,Y
A1A 5E7,NL,St. John's,47.597383,-52.725945,709,-0330,Y
A1A 5E8,NL,St. John's,47.614399,-52.723005,709,-0330,Y
A1A 5E9,NL,St. John's,47.597504,-52.731315,709,-0330,Y
A1A 5G1,NL,St. John's,47.615202,-52.708194,709,-0330,Y
A1A 5G2,NL,St. John's,47.614935,-52.708377,709,-0330,Y
A1A 5G3,NL,St. John's,47.616736,-52.710033,709,-0330,Y
A1A 5G5,NL,St. John's,47.615955,-52.709477,709,-0330,Y
A1A 5G6,NL,St. John's,47.599028,-52.703099,709,-0330,Y
A1A 5G8,NL,St. John's,47.612414,-52.711549,709,-0330,Y
A1A 5G9,NL,St. John's,47.611402,-52.722447,709,-0330,Y
A1A 5H1,NL,St. John's,47.602552,-52.715836,709,-0330,Y
A1A 5H2,NL,St. John's,47.601766,-52.717913,709,-0330,Y
A1A 5H3,NL,St. John's,47.601566,-52.719239,709,-0330,Y
A1A 5H4,NL,St. John's,47.599189,-52.740852,709,-0330,Y
A1A 5H5,NL,St. John's,47.599019,-52.740803,709,-0330,Y
A1A 5H6,NL,St. John's,47.611789,-52.709912,709,-0330,Y
A1A 5H7,NL,St. John's,47.617453,-52.710305,709,-0330,Y
A1A 5H8,NL,St. John's,47.60237,-52.751153,709,-0330,Y
A1A 5H9,NL,St. John's,47.599596,-52.740533,709,-0330,Y
A1A 5J1,NL,St. John's,47.611402,-52.722447,709,-0330,Y
A1A 5J2,NL,St. John's,47.61208,-52.714968,709,-0330,Y
A1A 5J3,NL,St. John's,47.605595,-52.719103,709,-0330,Y
A1A 5J4,NL,St. John's,47.601153,-52.724892,709,-0330,Y
A1A 5J5,NL,St. John's,47.601104,-52.722206,709,-0330,Y
A1A 5J6,NL,St. John's,47.611441,-52.69622,709,-0330,Y
A1A 5J7,NL,St. John's,47.590421,-52.685907,709,-0330,Y
A1A 5J8,NL,St. John's,47.598164,-52.736962,709,-0330,Y
A1A 5J9,NL,St. John's,47.598164,-52.736962,709,-0330,Y
A1A 5K1,NL,St. John's,47.600387,-52.738082,709,-0330,Y
A1A 5K2,NL,St. John's,47.599523,-52.723199,709,-0330,Y
A1A 5K5,NL,St. John's,47.586232,-52.706265,709,-0330,Y
A1A 5K6,NL,St. John's,47.58676,-52.705305,709,-0330,Y
A1A 5K7,NL,St. John's,47.588526,-52.706293,709,-0330,Y
A1A 5K8,NL,St. John's,47.58676,-52.705305,709,-0330,Y
A1A 5K9,NL,St. John's,47.588526,-52.706293,709,-0330,Y
A1A 5L1,NL,St. John's,47.586555,-52.705615,709,-0330,Y
A1A 5L2,NL,St. John's,47.586555,-52.705615,709,-0330,Y
A1A 5L4,NL,St. John's,47.587495,-52.70653,709,-0330,Y
A1A 5L5,NL,St. John's,47.61629,-52.700262,709,-0330,Y
A1A 5L6,NL,St. John's,47.610521,-52.723364,709,-0330,Y
A1A 5L7,NL,St. John's,47.599277,-52.705885,709,-0330,Y
A1A 5L8,NL,St. John's,47.603069,-52.725347,709,-0330,Y
A1A 5M1,NL,St. John's,47.603646,-52.724244,709,-0330,Y
A1A 5M2,NL,St. John's,47.603786,-52.722206,709,-0330,Y
A1A 5M3,NL,St. John's,47.603786,-52.722206,709,-0330,Y
A1A 5M4,NL,St. John's,47.598187,-52.72522,709,-0330,Y
A1A 5M5,NL,St. John's,47.599151,-52.72348,709,-0330,Y
A1A 5M6,NL,St. John's,47.597541,-52.725692,709,-0330,Y
A1A 5M7,NL,St. John's,47.605147,-52.754783,709,-0330,Y
A1A 5M9,NL,St. John's,47.613986,-52.706978,709,-0330,Y
A1A 5N1,NL,St. John's,47.612077,-52.714976,709,-0330,Y
A1A 5N2,NL,St. John's,47.6031,-52.742947,709,-0330,Y
A1A 5N3,NL,St. John's,47.610485,-52.72602,709,-0330,Y
A1A 5N4,NL,St. John's,47.610485,-52.72602,709,-0330,Y
A1A 5N5,NL,St. John's,47.597426,-52.712157,709,-0330,Y
A1A 5N6,NL,St. John's,47.619179,-52.716694,709,-0330,Y
A1A 5N7,NL,St. John's,47.607619,-52.741345,709,-0330,Y
A1A 5N8,NL,St. John's,47.607619,-52.741345,709,-0330,Y
A1A 5N9,NL,St. John's,47.566097,-52.868227,709,-0330,Y
A1A 5P1,NL,St. John's,47.60734,-52.752983,709,-0330,Y
A1A 5P2,NL,St. John's,47.602284,-52.745566,709,-0330,Y
A1A 5P3,NL,St. John's,47.603264,-52.74441,709,-0330,Y
A1A 5P4,NL,St. John's,47.602284,-52.745566,709,-0330,Y
A1A 5P5,NL,St. John's,47.579335,-52.689949,709,-0330,Y
A1A 5P6,NL,St. John's,47.619179,-52.716694,709,-0330,Y
A1A 5P7,NL,St. John's,47.598934,-52.736923,709,-0330,Y
A1A 5P8,NL,St. John's,47.598934,-52.736923,709,-0330,Y
A1A 5P9,NL,St. John's,47.599544,-52.739481,709,-0330,Y
A1A 5R1,NL,St. John's,47.600083,-52.738813,709,-0330,Y
A1A 5R2,NL,St. John's,47.600083,-52.738813,709,-0330,Y
A1A 5R3,NL,St. John's,47.608697,-52.754829,709,-0330,Y
A1A 5R4,NL,St. John's,47.60734,-52.752983,709,-0330,Y
A1A 5R5,NL,St. John's,47.608697,-52.754829,709,-0330,Y
A1A 5R6,NL,St. John's,47.60734,-52.752983,709,-0330,Y
A1A 5R7,NL,St. John's,47.592603,-52.686678,709,-0330,Y
A1A 5R8,NL,St. John's,47.601719,-52.744673,709,-0330,Y
A1A 5R9,NL,St. John's,47.601719,-52.744673,709,-0330,Y
A1A 5S1,NL,St. John's,47.601856,-52.742361,709,-0330,Y
A1A 5S2,NL,St. John's,47.601179,-52.744422,709,-0330,Y
A1A 5S3,NL,St. John's,47.601856,-52.742361,709,-0330,Y
A1A 5S4,NL,St. John's,47.617653,-52.704346,709,-0330,Y
A1A 5S5,NL,St. John's,47.615637,-52.70317,709,-0330,Y
A1A 5S6,NL,St. John's,47.614804,-52.703717,709,-0330,Y
A1A 5S7,NL,St. John's,47.616062,-52.704956,709,-0330,Y
A1A 5S8,NL,St. John's,47.616607,-52.703655,709,-0330,Y
A1A 5S9,NL,St. John's,47.616062,-52.704956,709,-0330,Y
A1A 5T1,NL,St. John's,47.592636,-52.686923,709,-0330,Y
A1A 5T2,NL,St. John's,47.611653,-52.739536,709,-0330,Y
A1A 5T3,NL,St. John's,47.614037,-52.711313,709,-0330,Y
A1A 5T4,NL,St. John's,47.615495,-52.704309,709,-0330,Y
A1A 5T5,NL,St. John's,47.615495,-52.704309,709,-0330,Y
A1A 5T6,NL,St. John's,47.60905,-52.75152,709,-0330,Y
A1A 5T7,NL,St. John's,47.600897,-52.746146,709,-0330,Y
A1A 5T8,NL,St. John's,47.60065,-52.690346,709,-0330,Y
A1A 5T9,NL,St. John's,47.572078,-52.696399,709,-0330,Y
A1A 5V1,NL,St. John's,47.572078,-52.696399,709,-0330,Y
A1A 5V2,NL,St. John's,47.600897,-52.746146,709,-0330,Y
A1A 5V3,NL,St. John's,47.610153,-52.688462,709,-0330,Y
A1A 5V4,NL,St. John's,47.610153,-52.688462,709,-0330,Y
A1A 5V5,NL,St. John's,47.611605,-52.68121,709,-0330,Y
A1A 5V6,NL,St. John's,47.610153,-52.688462,709,-0330,Y
A1A 5V7,NL,St. John's,47.611434,-52.716509,709,-0330,Y
A1A 5V8,NL,St. John's,47.610798,-52.715221,709,-0330,Y
A1A 5V9,NL,St. John's,47.617486,-52.714482,709,-0330,Y
A1A 5W1,NL,St. John's,47.58087,-52.677941,709,-0330,Y
A1A 5W2,NL,St. John's,47.582072,-52.678629,709,-0330,Y
A1A 5W3,NL,St. John's,47.579782,-52.684958,709,-0330,Y
A1A 5W5,NL,St. John's,47.610845,-52.69223,709,-0330,Y
A1A 5W6,NL,St. John's,47.610845,-52.69223,709,-0330,Y
A1A 5W7,NL,St. John's,47.611271,-52.693108,709,-0330,Y
A1A 5W8,NL,St. John's,47.610049,-52.694557,709,-0330,Y
A1A 5W9,NL,St. John's,47.617306,-52.704116,709,-0330,Y
A1A 5X1,NL,St. John's,47.617306,-52.704116,709,-0330,Y
A1A 5X2,NL,St. John's,47.61881,-52.705106,709,-0330,Y
A1A 5X3,NL,St. John's,47.618016,-52.704584,709,-0330,Y
A1A 5X4,NL,St. John's,47.619477,-52.705543,709,-0330,Y
A1A 5X5,NL,St. John's,47.599839,-52.745405,709,-0330,Y
A1A 5X6,NL,St. John's,47.599949,-52.744961,709,-0330,Y
A1A 5X7,NL,St. John's,47.602774,-52.682133,709,-0330,Y
A1A 5X8,NL,St. John's,47.603725,-52.752736,709,-0330,Y
A1A 5X9,NL,St. John's,47.604033,-52.753686,709,-0330,Y
A1A 5Y1,NL,St. John's,47.604033,-52.753686,709,-0330,Y
A1A 5Y2,NL,St. John's,47.604492,-52.756905,709,-0330,Y
A1A 5Y3,NL,St. John's,47.600686,-52.751967,709,-0330,Y
A1A 5Y4,NL,St. John's,47.606394,-52.753883,709,-0330,Y
A1A 5Y5,NL,St. John's,47.606394,-52.753883,709,-0330,Y
A1A 5Y6,NL,St. John's,47.609691,-52.718133,709,-0330,Y
A1A 5Y7,NL,St. John's,47.591316,-52.708766,709,-0330,Y
A1A 5Y8,NL,St. John's,47.59878,-52.740909,709,-0330,Y
A1A 5Y9,NL,St. John's,47.59878,-52.740909,709,-0330,Y
A1A 5Z1,NL,St. John's,47.608579,-52.691259,709,-0330,Y
A1A 5Z3,NL,St. John's,47.607437,-52.689786,709,-0330,Y
A1A 5Z4,NL,St. John's,47.607437,-52.689786,709,-0330,Y
A1A 5Z5,NL,St. John's,47.606872,-52.690835,709,-0330,Y
A1A 5Z6,NL,St. John's,47.58225,-52.70367,709,-0330,Y
A1A 5Z7,NL,St. John's,47.605263,-52.747897,709,-0330,Y
A1A 5Z8,NL,St. John's,47.60306,-52.748945,709,-0330,Y
A1A 5Z9,NL,St. John's,47.611434,-52.716509,709,-0330,Y
A1A 6A1,NL,St. John's,47.60996,-52.718014,709,-0330,Y
A1A 6A2,NL,St. John's,47.60456,-52.746345,709,-0330,Y
A1A 6A3,NL,St. John's,47.603717,-52.74694,709,-0330,Y
A1A 6A4,NL,St. John's,47.603717,-52.74694,709,-0330,Y
A1A 6A5,NL,St. John's,47.603345,-52.746316,709,-0330,Y
A1A 6A6,NL,St. John's,47.603345,-52.746316,709,-0330,Y
A1A 6A7,NL,St. John's,47.600579,-52.748319,709,-0330,Y
A1A 6A8,NL,St. John's,47.623339,-52.734046,709,-0330,Y
A1A 6A9,NL,St. John's,47.603208,-52.753461,709,-0330,Y
A1A 6B1,NL,St. John's,47.603208,-52.753461,709,-0330,Y
A1A 6B2,NL,St. John's,47.603957,-52.756677,709,-0330,Y
A1A 6B3,NL,St. John's,47.604663,-52.759194,709,-0330,Y
A1A 6B4,NL,St. John's,47.580026,-52.680648,709,-0330,Y
A1A 6B5,NL,St. John's,47.580026,-52.680648,709,-0330,Y
A1A 6B6,NL,St. John's,47.604033,-52.753686,709,-0330,Y
A1A 6B7,NL,St. John's,47.604033,-52.753686,709,-0330,Y
A1A 6B8,NL,St. John's,47.619477,-52.705543,709,-0330,Y
A1A 6B9,NL,St. John's,47.615722,-52.706551,709,-0330,Y
A1A 6C1,NL,St. John's,47.620909,-52.706787,709,-0330,Y
A1A 6C2,NL,St. John's,47.61881,-52.705106,709,-0330,Y
A1A 6C3,NL,St. John's,47.617856,-52.707174,709,-0330,Y
A1A 6C4,NL,St. John's,47.61881,-52.705106,709,-0330,Y
A1A 6C7,NL,St. John's,47.608179,-52.692112,709,-0330,Y
A1B 0A2,NL,St. John's,47.551431,-52.781095,709,-0330,Y
A1B 0A4,NL,St. John's,47.548447,-52.794361,709,-0330,Y
A1B 0A5,NL,St. John's,47.549173,-52.792212,709,-0330,Y
A1B 0A6,NL,St. John's,47.549455,-52.793743,709,-0330,Y
A1B 0A8,NL,St. John's,47.549455,-52.793743,709,-0330,Y
A1B 0B2,NL,St. John's,47.54975,-52.795326,709,-0330,Y
A1B 0B3,NL,St. John's,47.549455,-52.793743,709,-0330,Y
A1B 0B4,NL,St. John's,47.548268,-52.798208,709,-0330,Y
A1B 0B7,NL,St. John's,47.555929,-52.766785,709,-0330,Y
A1B 0B8,NL,St. John's,47.555931,-52.766783,709,-0330,Y
A1B 0B9,NL,St. John's,47.555933,-52.766781,709,-0330,Y
A1B 0C1,NL,St. John's,47.555935,-52.766779,709,-0330,Y
A1B 0C2,NL,St. John's,47.555937,-52.766777,709,-0330,Y
A1B 0C3,NL,St. John's,47.555939,-52.766775,709,-0330,Y
A1B 0C4,NL,St. John's,47.555941,-52.766773,709,-0330,Y
A1B 0C5,NL,St. John's,47.549173,-52.792212,709,-0330,Y
A1B 0C6,NL,St. John's,47.548447,-52.794361,709,-0330,Y
A1B 0C7,NL,St. John's,47.555241,-52.782497,709,-0330,Y
A1B 0C8,NL,St. John's,47.555943,-52.766771,709,-0330,Y
A1B 0C9,NL,St. John's,47.555945,-52.766769,709,-0330,Y
A1B 0E1,NL,St. John's,47.54975,-52.795326,709,-0330,Y
A1B 0E2,NL,St. John's,47.550121,-52.794246,709,-0330,Y
A1B 0E3,NL,St. John's,47.550769,-52.794735,709,-0330,Y
A1B 0E4,NL,St. John's,47.549618,-52.790936,709,-0330,Y
A1B 0E5,NL,St. John's,47.549618,-52.790936,709,-0330,Y
A1B 0E6,NL,St. John's,47.555947,-52.766767,709,-0330,Y
A1B 0E7,NL,St. John's,47.555949,-52.766765,709,-0330,Y
A1B 0E8,NL,St. John's,47.555951,-52.766763,709,-0330,Y
A1B 0E9,NL,St. John's,47.555953,-52.766761,709,-0330,Y
A1B 0G1,NL,St. John's,47.543511,-52.795653,709,-0330,Y
A1B 0G3,NL,St. John's,47.555955,-52.766759,709,-0330,Y
A1B 0G4,NL,St. John's,47.555957,-52.766757,709,-0330,Y
A1B 0G5,NL,St. John's,47.555959,-52.766755,709,-0330,Y
A1B 0G6,NL,St. John's,47.555961,-52.766753,709,-0330,Y
A1B 0G7,NL,St. John's,47.551786,-52.796834,709,-0330,Y
A1B 0G8,NL,St. John's,47.551786,-52.796834,709,-0330,Y
A1B 0G9,NL,St. John's,47.551585,-52.79535,709,-0330,Y
A1B 0H1,NL,St. John's,47.553303,-52.796482,709,-0330,Y
A1B 0H2,NL,St. John's,47.547382,-52.797509,709,-0330,Y
A1B 0H6,NL,St. John's,47.555963,-52.766751,709,-0330,Y
A1B 0H8,NL,St. John's,47.555965,-52.766749,709,-0330,Y
A1B 0H9,NL,St. John's,47.555967,-52.766747,709,-0330,Y
A1B 0J1,NL,St. John's,47.555969,-52.766745,709,-0330,Y
A1B 0J3,NL,St. John's,47.555971,-52.766743,709,-0330,Y
A1B 0J4,NL,St. John's,47.555973,-52.766741,709,-0330,Y
A1B 0J5,NL,St. John's,47.555975,-52.766739,709,-0330,Y
A1B 0J6,NL,St. John's,47.555977,-52.766737,709,-0330,Y
A1B 0J7,NL,St. John's,47.545537,-52.801608,709,-0330,Y
A1B 0J8,NL,St. John's,47.543414,-52.800981,709,-0330,Y
A1B 0J9,NL,St. John's,47.545537,-52.801608,709,-0330,Y
A1B 0K1,NL,St. John's,47.544938,-52.800554,709,-0330,Y
A1B 0K2,NL,St. John's,47.544938,-52.800554,709,-0330,Y
A1B 0K3,NL,St. John's,47.545288,-52.797423,709,-0330,Y
A1B 0K4,NL,St. John's,47.545288,-52.797423,709,-0330,Y
A1B 0K5,NL,St. John's,47.550484,-52.788048,709,-0330,Y
A1B 0K6,NL,St. John's,47.551065,-52.786134,709,-0330,Y
A1B 0K7,NL,St. John's,47.550496,-52.786852,709,-0330,Y
A1B 0K8,NL,St. John's,47.550496,-52.786852,709,-0330,Y
A1B 0K9,NL,St. John's,47.550484,-52.788048,709,-0330,Y
A1B 0L1,NL,St. John's,47.549307,-52.786719,709,-0330,Y
A1B 0L2,NL,St. John's,47.555241,-52.782497,709,-0330,Y
A1B 0L4,NL,St. John's,47.552219,-52.79108,709,-0330,Y
A1B 0L6,NL,St. John's,47.55574,-52.801237,709,-0330,Y
A1B 0L7,NL,St. John's,47.55574,-52.801237,709,-0330,Y
A1B 0L8,NL,St. John's,47.545418,-52.798371,709,-0330,Y
A1B 0L9,NL,St. John's,47.57502,-52.71156,709,-0330,Y
A1B 0M1,NL,St. John's,47.57502,-52.71156,709,-0330,Y
A1B 0M2,NL,St. John's,47.553781,-52.791991,709,-0330,Y
A1B 0M3,NL,St. John's,47.553781,-52.791991,709,-0330,Y
A1B 0M4,NL,St. John's,47.57502,-52.71156,709,-0330,Y
A1B 0M5,NL,St. John's,47.57502,-52.71156,709,-0330,Y
A1B 0M6,NL,St. John's,47.57502,-52.71156,709,-0330,Y
A1B 0M7,NL,St. John's,47.57502,-52.71156,709,-0330,Y
A1B 0M8,NL,St. John's,47.550801,-52.7899,709,-0330,Y
A1B 0M9,NL,St. John's,47.554,-52.79074,709,-0330,Y
A1B 0N1,NL,St. John's,47.555245,-52.791655,709,-0330,Y
A1B 0N2,NL,St. John's,47.555199,-52.791527,709,-0330,Y
A1B 0N3,NL,St. John's,47.555199,-52.791527,709,-0330,Y
A1B 0N6,NL,St. John's,47.545887,-52.801656,709,-0330,Y
A1B 0N7,NL,St. John's,47.54807,-52.799038,709,-0330,Y
A1B 0N8,NL,St. John's,47.54807,-52.799038,709,-0330,Y
A1B 0N9,NL,St. John's,47.564206,-52.707821,709,-0330,Y
A1B 0P1,NL,St. John's,47.564206,-52.707821,709,-0330,Y
A1B 0P2,NL,St. John's,47.57502,-52.71156,709,-0330,Y
A1B 0P3,NL,St. John's,47.57502,-52.71156,709,-0330,Y
A1B 0P4,NL,St. John's,47.57502,-52.71156,709,-0330,Y
A1B 0P5,NL,St. John's,47.57502,-52.71156,709,-0330,Y
A1B 0P6,NL,St. John's,47.570871,-52.729669,709,-0330,Y
A1B 0P7,NL,St. John's,47.550229,-52.784489,709,-0330,Y
A1B 0P8,NL,St. John's,47.550229,-52.784489,709,-0330,Y
A1B 0P9,NL,St. John's,47.544543,-52.804295,709,-0330,Y
A1B 0R1,NL,St. John's,47.542334,-52.802613,709,-0330,Y
A1B 0R2,NL,St. John's,47.542334,-52.802613,709,-0330,Y
A1B 0R3,NL,St. John's,47.542877,-52.802413,709,-0330,Y
A1B 0R4,NL,St. John's,47.542877,-52.802413,709,-0330,Y
A1B 0R5,NL,St. John's,47.543199,-52.802687,709,-0330,Y
A1B 0R6,NL,St. John's,47.543199,-52.802687,709,-0330,Y
A1B 0R7,NL,St. John's,47.544036,-52.802669,709,-0330,Y
A1B 0R8,NL,St. John's,47.544878,-52.803077,709,-0330,Y
A1B 0R9,NL,St. John's,47.544878,-52.803077,709,-0330,Y
A1B 0S1,NL,St. John's,47.54919,-52.785862,709,-0330,Y
A1B 0S2,NL,St. John's,47.55214,-52.787711,709,-0330,Y
A1B 0S3,NL,St. John's,47.55214,-52.787711,709,-0330,Y
A1B 0S4,NL,St. John's,47.57502,-52.71156,709,-0330,Y
A1B 0S5,NL,St. John's,47.57502,-52.71156,709,-0330,Y
A1B 0S6,NL,St. John's,47.545887,-52.801656,709,-0330,Y
A1B 0S8,NL,St. John's,47.57502,-52.71156,709,-0330,Y
A1B 0S9,NL,St. John's,47.543199,-52.802687,709,-0330,Y
A1B 0T1,NL,St. John's,47.543199,-52.802687,709,-0330,Y
A1B 0T2,NL,St. John's,47.555703,-52.782373,709,-0330,Y
A1B 0T4,NL,St. John's,47.555703,-52.782373,709,-0330,Y
A1B 0T6,NL,St. John's,47.555703,-52.782373,709,-0330,Y
